;Sigla da Matéria Legislativa;Ano da propositura;Número da propositura;Ano da propositura.1;Ementa (texto em linha única);Ind. Destinatário;Ind. Motivo;Ind. Endereco;Ind. Adm.Regional;Ind. Bairro;Nome;Partido (último);Latitude;Longitude
0;IND;2003.0;1;2003;;PMSP;PODA DE ÁRVORES;RUA ENG PRUDENTE;;VILA MONUMENTO;DALTON SILVANO DO AMARAL;;-23.57288;-46.61452
1;IND;;2;2003;;PMSP;LIMPEZA DE TERRENO E CORTE DE MATO;RUA NASCER DO SOL;;CIDADE TIRADENTES;DALTON SILVANO DO AMARAL;;-23.58935;-46.41233
2;IND;;3;2003;;PMSP;LIMPEZA DE TERRENO E CORTE DE MATO.;RUA ARARAS;;MO. DA POLVORA;DALTON SILVANO DO AMARAL;;-23.55733;-46.63594
3;IND;;4;2003;;ILUME;ILUMINAÇÃO;FINAL DA RUA ARMANDO FERRENTINI;;MO. DA ACLIMAÇÃO;DALTON SILVANO DO AMARAL;;;
4;IND;;5;2003;;PMSP;DESOBSTRUÇÃO DA GALERIAS;RUA HORÁCIO MOURA;;LIMÃO;DALTON SILVANO DO AMARAL;;-23.50926;-46.67504
5;IND;;6;2003;;PMSP;DESOBSTRUÇÃO DAS GALERIAS AO REDOR DA PRAÇA.;PÇA JOSÉ GOMES VIEIRA;;LIMÃO;DALTON SILVANO DO AMARAL;;-23.69246;-46.70442
6;IND;;7;2003;;PMSP;REMOÇÃO DE ÁRVORE COM CUPIM.;RUA FREIRE DA SILVA;;CAMBUCI;DALTON SILVANO DO AMARAL;;-23.56422;-46.61592
7;IND;;8;2003;;SUBPREEITURA DO IPIRANGA;LIMPEZA DE TERRENO;RUA BRIGADEIRO AMILCAR;;IPIRANGA;WILLIAM BOSS WOO;;-23.58659;-46.60385
8;IND;;9;2003;;SBPREFEITURA FREGUESIA DO Ó;REMOÇÃO DE ÁRVORE;RUA FILOMENA BOCHI PILLI;;FREGUESIA DO Ó;DALTON SILVANO DO AMARAL;;-23.4939399;-46.69841
9;IND;;10;2003;;SUBPREFEITURA DA SÉ;REMOÇÃO DE ÁRVORE;RUA FREIRE DA SILVA;;CAMBUCI;DALTON SILVANO DO AMARAL;;-23.56422;-46.61592
10;IND;;11;2003;;SUBPREFEITURA DE VILA MARIANA;REMOÇÃO DE ÁRVORE;RUA ANDRÉ MENDES;;JARDIM DA SAÚDE;DALTON SILVANO DO AMARAL;;-23.61587;-46.6224
11;IND;;12;2003;;SUBPREFEITURA DE VILA MARIANA;LIMPEZA DE TERRENO E CORTE DE MATO.;RUA BATISTA CEPELOS;;ACLIMAÇÃO;DALTON SILVANO DO AMARAL;;-23.57622;-46.63323
12;IND;;13;2003;;PMSP;PAVIMENTAÇÃO;RUA LIDIA SCHMIDT;;EMBU-GUAÇU;EDIVALDO ALVES ESTIMA;;-23.84613;-46.75915
13;IND;;14;2003;;PMSP;PAVIMENTAÇÃO;RUA DR DE ARACI NASCIMENTO;;PARQUE TAMARI;EDIVALDO ALVES ESTIMA;;-23.82999;-46.72986
14;IND;;15;2003;;PMSP;PAVIMENTAÇÃO;RUA MARIA DA COSTA BEZERRA;;JD RECANTO CAMPO BELO;EDIVALDO ALVES ESTIMA;;-23.7966;-46.73872
15;IND;;16;2003;;PMSP;PAVIMENTAÇÃO;RUA SILVESTRE JOSÉ DANTAS;;PARQUE TAMARI;EDIVALDO ALVES ESTIMA;;-23.83108;-46.72967
16;IND;;17;2003;;PMSP;PAVIMENTAÇÃO;RUA NAZLE MAUAD LUTSI;;PARQUE TAMARI;EDIVALDO ALVES ESTIMA;;-23.83042;-46.73036
17;IND;;18;2003;;PMSP;SOLICITA ILUMINAÇÃO PÚBLICA PARA O BAIRRO VILA BELLA - SÃO MATEUS.;;;;JOAO ANTONIO DA SILVA FILHO;;;
18;IND;;19;2003;;PMSP;SOLICITA IMPLANTAÇÃO DE SERVIÇO DE CORREIO NO BAIRRO JARDIM VILA BELA - SÃO MATEUS.;;;;JOAO ANTONIO DA SILVA FILHO;;;
19;IND;;20;2003;;PMSP;SOLICITA IMPLANTAÇÃO DE REDE DE ÁGUA, ESGOTO E PA-VIMENTAÇÃO NO BAIRRO JARDIM VILA BELA - SÃO MATEUS;;;;JOAO ANTONIO DA SILVA FILHO;;;
20;IND;;21;2003;;PMSP;TELEFONE COMUNITÁRIO.;RUA FRANCISCO BITENCOURT 7-E;;JD AURORA;ANTONIO LAURO CAMPANHA;;-23.53539;-46.42358
21;IND;;22;2003;;PMSP;TELEFONE COMUNITÁRIO NO PRÉDIO DA SOCIEDADE AMIGOS DO JD COLORADO.;RUA PEDRO CHIES, 62;;JD COLORADO;ANTONIO LAURO CAMPANHA;;-23.58499;-46.5293
22;IND;;23;2003;;PMSP;INSTALAÇÃO DE TELEFONE COMUNITÁRIO NO PRÉDIO DA ASSOCIAÇÃO BENEFICENTE VILA BANCÁRIA.;RUA DOS BANQUEIROS, 128;;VILA BANCÁRIA/VILA BANCÁR;ANTONIO LAURO CAMPANHA;;-23.5897671;-46.5225469
23;IND;;24;2003;;PMSP;CONSERTO DE BURACO EM ASFALTO EM VIA PÚBLICO.;RUA AMAMELIS;;JD ELIANE;ANTONIO LAURO CAMPANHA;;-23.55455;-46.50284
24;IND;;25;2003;;PMSP;LINHA COMUNITÁRIO.;RUA FRANCISCO BITENCOURT, 7-E;;JD AURORA;ANTONIO LAURO CAMPANHA;;-23.53539;-46.42358
25;IND;;26;2003;;PMSP;PLANTIO DE PALMEIRAS IMPERIAL.;PÁTIO DO COLÉGIO;;CENTRO;WADIH JORGE MUTRAN;;-23.54864;-46.63306
26;IND;;27;2003;;PMSP;"COLOCAÇÃO DE PLACA ""PROIBIDO JOGAR LIXO"".";RUA CUIABÁ;;MOOCA;DALTON SILVANO DO AMARAL;;-23.49308;-46.69418
27;IND;;28;2003;;ILUME;COLOCAÇÃO DE LÂMPADA DE MAIOR POTÊNCIA.;RUA SIMÃO PEREIRA;;ACLIMAÇÃO;DALTON SILVANO DO AMARAL;;-23.4908;-46.40592
28;IND;;29;2003;;PMSP;RECUPERAÇÃO ASFÁLTICA.;AV CENTRAL;;PARQUE LAGOA RICA;DALTON SILVANO DO AMARAL;;-23.90684;-46.70803
29;IND;;30;2003;;PMSP;REMOÇÃO DE ÁRVORE SECA;RUA JOSÉ COMPARATO;;VILA DEODORO;DALTON SILVANO DO AMARAL;;-23.57899;-46.62488
30;IND;;31;2003;;PMSP;APURAÇÃO PARA VERIFICAR BARULHO EXCESSIVO ATÉ ÀS 5 HORAS DA MANHÃ.;RUA BOLEIRO, 153;;VILA CARMOSINA;DALTON SILVANO DO AMARAL;;-23.55167;-46.46007
31;IND;;32;2003;;PMSP;APURAÇÃO PARA VERIFICAR BARULHO EXCESSIVO ATÉ ÀS 4 HORAS DA MANHÃ TODOS OS FINAIS DE SEMANA.;RUA RIGA, 448;;SACOMÃ;DALTON SILVANO DO AMARAL;;-23.61724;-46.59733
32;IND;;33;2003;;PMSP;LIMPEZA DE TERRENO.;RUA JOSÉ DO PATROCÍNIO, 577;;CIDADE TIRADENTES;DALTON SILVANO DO AMARAL;;-23.58062;-46.63132
33;IND;;34;2003;;PMSP;PAVIMENTAÇÃO;RUA FÉLIX DE OTERO;;VILA AULÁLIA;DALTON SILVANO DO AMARAL;;-23.5439;-46.52859
34;IND;;35;2003;;PMSP;IMPLANTAÇÃO DE DOIS POSTES COM LUMINÁRIAS.;RUA ALÍPIO BATISTA PINTO;;VILA TEREZINHA;JOSE VIVIANI FERRAZ;;-23.45593;-46.69548
35;IND;;36;2003;;PMSP;IMPLANTAÇÃO DE POSTES COM LUMINÁRIAS.;PÇA PORTO DOS ESCRAVOS;;VILA SÃO JOSÉ;JOSE VIVIANI FERRAZ;;;
36;IND;;37;2003;;PMSP;LUMINÁRIAS;RUA GASPAR DE SOUZA;;LAJEADO/GUAIANAZES;JOSE VIVIANI FERRAZ;;-23.5328899;-46.64637
37;IND;;38;2003;;PMSP;TROCA DE LUMINÁRIAS.;RUA JOÃO DA SILVA AGUIAR;;LAJEADO/GUAIANASES;JOSE VIVIANI FERRAZ;;-23.5385;-46.39689
38;IND;;39;2003;;PMSP;TROCA DE LUMINÁRIAS.;TRAVESSA JEAN PERRIN;;VILA CACHOEIRINHA;JOSE VIVIANI FERRAZ;;-23.48039;-46.66855
39;IND;;40;2003;;PMSP;TRES POSTES COM LUMINÁRIAS.;RUA JOSÉ GERVÁSIO DE SOUZA;;JD BOA VISTA/TAIPAS;JOSE VIVIANI FERRAZ;;-23.48769;-46.43062
40;IND;;41;2003;;PMSP;TROCA DE LUMINÁRIAS;RUA RAMAL DOS MENEZES;;JD MALBA;JOSE VIVIANI FERRAZ;;-23.48585;-46.64479
41;IND;;42;2003;;PMSP;IMPLANTAÇÃO DE DOIS POSTES COM LUMINÁRIAS.;RUA GILHERMINA;;JD MALBA;JOSE VIVIANI FERRAZ;;-23.54717;-46.54602
42;IND;;43;2003;;PMSP;ILUMINAÇÃO PÚBLICA;RUA LAGOA DA SERRA;;JD PAULISTANO;JOSE VIVIANI FERRAZ;;-23.45944;-46.71061
43;IND;;44;2003;;PMSP;IMPLANTAÇÃO DE TRES POSTES COM LUMINÁRIAS.;RUA RUI DE MORAES APOCALIPSE;;JD TIRO;JOSE VIVIANI FERRAZ;;-23.47356;-46.68549
44;IND;;45;2003;;PMSP;LUMINÁRIAS.;RUA BAHIA;;ANHANGUERA;JOSE VIVIANI FERRAZ;;;
45;IND;;46;2003;;PMSP;TROCA DE LUMINÁRIAS.;RUA DOM AGNELO ROSSI;;JD ANHANGUERA;JOSE VIVIANI FERRAZ;;-23.43935;-46.79291
46;IND;;47;2003;;PMSP;IMPLANTAÇÃO DE DOIS POSTES.;RUA BARÃO DE SANTO ANGELO;;PARQUE HOLLYWOOD;JOSE VIVIANI FERRAZ;;-23.47533;-46.68745
47;IND;;48;2003;;PMSP;IMPLANTAÇÃO DE ILUMINAÇÃO PÚBLICA;RUA ARAÚJP GUIMARÃES;;JD MONTE ALEGRE;JOSE VIVIANI FERRAZ;;-23.4752699;-46.70154
48;IND;;49;2003;;PMSP;TROCA DE LUMINÁRIAS.;RUA SERGIO TADEU CORTICEIRO;;PARQUE MANDI;JOSE VIVIANI FERRAZ;;-23.48217;-46.6810199
49;IND;;50;2003;;PMSP;IMPLANTAÇÃO DE ILUMINAÇÃO PÚBLICA;RUA MINISTRO BARBOSA LIMA;;JD CACHOEIRA;JOSE VIVIANI FERRAZ;;-23.48007;-46.67664
50;IND;;51;2003;;PMSP;IMPLANTAÇÃO DE POSTES.;PÇA AMIGOS DO Ó;;ITABERABA;JOSE VIVIANI FERRAZ;;-23.49137;-46.49933
51;IND;;52;2003;;PMSP;TROCA DE TRES LUMINÁRIAS.;AV ITABERABA;;FREGUESIA DO Ó;JOSE VIVIANI FERRAZ;;-23.49942;-46.698
52;IND;;53;2003;;PMSP;REPARO NA ILUMINAÇÃO PÚBLICA.;AV ITABERABA;;ITABERABA;JOSE VIVIANI FERRAZ;;-23.48485;-46.68895
53;IND;;54;2003;;PMSP;LIMPEZA DE GALERIA.;RUA BENEDITO MONTEIRO;;PIQUERI;JOSE VIVIANI FERRAZ;;-23.50668;-46.70659
54;IND;;55;2003;;PMSP;SOLICITA A CANALIZAÇÃO DO CÓRREGO RIBEIRÃO DAS ANTTAS, ALARGAMENTO DAS BARREIRAS.;;;;JOSE VIVIANI FERRAZ;;;
55;IND;;56;2003;;PMSP;CANALIZAÇÃO DO CÓRREGO DA ONÇA.;AV DEP CANTIDIO SAMPAIO;;JARAGUÁ;JOSE VIVIANI FERRAZ;;-23.46357;-46.68134
56;IND;;57;2003;;PMSP;OPERAÇÃO TAPA-BURACO;RUA JOAQUIM AFONSO DE SOUZA;;CASA VERDE ALTA;RUBENS WAGNER CALVO;;-23.48885;-46.66566
57;IND;;58;2003;;PMSP;OPERAÇÃO TAPA-BURACO;RUA FRANCISCO DIOGO;;PQ PERUCHE;RUBENS WAGNER CALVO;;-23.4997599;-46.65353
58;IND;;59;2003;;PMSP;OPERAÇÃO TAPA-BURACO;RUA JOSÉ BRITO DE FREITAS;;CASA VERDE ALTA;RUBENS WAGNER CALVO;;-23.4909399;-46.66722
59;IND;;60;2003;;PMSP;OPERAÇÃO TAPA-BURACO;RUA CEZAR PENHA RAMOS;;CASA VERDE ALTA;RUBENS WAGNER CALVO;;-23.4906599;-46.6636
60;IND;;61;2003;;PMSP;RECAPEAMENTO ASFÁLTICO;RUA ANGELO BONA VITA;;VILA SANTA MARIA;RUBENS WAGNER CALVO;;-23.48447;-46.67286
61;IND;;62;2003;;PMSP;RECAPEAMENTO ASFÁLTICO;RUA BARÃO DE SÃO LUIZ;;JD VILA PRIMAVERA.;RUBENS WAGNER CALVO;;-23.48424;-46.6769
62;IND;;63;2003;;PMSP;RECAPEAMENTO ASFÁLTICO;RUA DORNELES;;CASA VERDE ALTA;RUBENS WAGNER CALVO;;-23.48779;-46.66374
63;IND;;64;2003;;PMSP;RECAPEAMENTO ASFÁLTICO;RUA ANTONIO VERA CRUZ;;CASA VERDE ALTA;RUBENS WAGNER CALVO;;-23.49427;-46.66426
64;IND;;65;2003;;PMSP;RECAPEAMENTO ASFÁLTICO.;RUA CEL CASSIO DE BARROS;;CASA VERDE ALTA;RUBENS WAGNER CALVO;;-23.49661;-46.6615899
65;IND;;66;2003;;PMSP;RECAPEAMENTO ASFÁLTICO;RUA BERNARDO SABADINE;;VILA SÃO ROQUE;RUBENS WAGNER CALVO;;-23.47972;-46.65673
66;IND;;67;2003;;PMSP;RECAPEAMENTO ASFÁLTICO;RUA MANUEL MANRIQUE;;SITIO MANDAQUI;RUBENS WAGNER CALVO;;-23.47958;-46.65715
67;IND;;68;2003;;PMSP;RECAPEAMENTO ASFÁLTICO;RUA QUARTIM BARBOZA;;VILA SANTA MARIA;RUBENS WAGNER CALVO;;-23.49154;-46.67232
68;IND;;69;2003;;PMSP;RECAPEAMENTO ASFÁLTICO;RUA ANTONIO DE LIBERATO;;IMIRIM;RUBENS WAGNER CALVO;;-23.48443;-46.65445
69;IND;;70;2003;;PMSP;ENTULHO NA CALÇADA.;AV PROF FRANCISCO MORATO;;FERREIRA;GILBERTO TANOS NATALINI;;-23.60286;-46.7444
70;IND;;71;2003;;PMSP;OPERAÇÃO TAPA-BURACO.;RUA CEL CONRADO SIQUEIRA CAMPOS;;JD DAS ACÁCIAS;GILBERTO TANOS NATALINI;;-23.62334;-46.6868399
71;IND;;72;2003;;PMSP;OPERAÇÃO TAPA-BURACO;RUA TOMAS DE LONEY;;CHÁCARA SANTO AMARO;GILBERTO TANOS NATALINI;;-23.63014;-46.6961
72;IND;;73;2003;;PMSP;OPERAÇÃO TAPA-BURACO;RUA ANTONIO DAS CHAGAS;;CHÁCARA SANTO ANTONIO;GILBERTO TANOS NATALINI;;-23.63081;-46.70134
73;IND;;74;2003;;PMSP;OPERAÇÃO TAPA-BURACO;RUA ESTEVÃO RIBEIRO GARCIA;;JD VIRGINIA;GILBERTO TANOS NATALINI;;-23.4981699;-46.3908
74;IND;;75;2003;;PMSP;REFORMA EMERGENCIAL DE CONTENÇÃO DE BARRANCO.;RUA JOSÉ DO ROSÁRIO;;PARQUE BRISTOL;WILLIAM BOSS WOO;;-23.64427;-46.60759
75;IND;;76;2003;;PMSP;CONSTRUÇÃO DE PASSARELA LIGANDO A FAVELA DO GATO À MARGEM OPOSTA DO RIO TAMANDUATEÍ.;FAVELA DO GATO;;BOM RETIRO;WILLIAM BOSS WOO;;-23.53106;-46.55548
76;IND;;77;2003;;PMSP;PODA DE ÁRVORES.;RUA BARÃO DE ANTONIO DE CAIRARI, 14;;VILA CARMOZINA;JOSE RICARDO FRANCO MONTORO;;-23.5237641;-46.7462035
77;IND;;78;2003;;PMSP;LIMPEZA DE BUEIROS;RUA FORTUNA DE MINAS;;VILA ARISI;CELSO DO CARMO JATENE;;-23.56065;-46.5095699
78;IND;;79;2003;;PMSP;LIMPEZA DE BUEIROS;RUA COSTEIRA;;VILA ARISI;CELSO DO CARMO JATENE;;-23.56032;-46.50998
79;IND;;80;2003;;PMSP;LIMPEZA DE BUEIROS;RUA FREDERICO SEVERO;;VILA ARISI;CELSO DO CARMO JATENE;;-23.55699;-46.51422
80;IND;;81;2003;;PMSP;LIMPEZA DE BUEIROS;RUA ADUSTINA;;VILA ARISI;CELSO DO CARMO JATENE;;-23.55771;-46.51306
81;IND;;82;2003;;PMSP;LIMPEZA DE BUEIROS;RUA ALORA;;VILA ARISI;CELSO DO CARMO JATENE;;-23.50893;-46.47486
82;IND;;83;2003;;PMSP;LIMPEZA DE BUEIROS.;RUA EMBU;;JD SANTA MARIA;CELSO DO CARMO JATENE;;-23.53208;-46.56759
83;IND;;84;2003;;PMSP;LIMPEZA DE BUEIROS;RUA LANDIRANA;;JD SANTA MARIA;CELSO DO CARMO JATENE;;-23.55558;-46.50766
84;IND;;85;2003;;PMSP;LIMPEZA DE BUEIROS;RUA ARRABALDE;;VILA ARISI;CELSO DO CARMO JATENE;;;
85;IND;;86;2003;;PMSP;LIMPEZA DE PRAÇA PÚBLICA;RUA CIRILO DE OLIVEIRA;;IMIRIM;CELSO DO CARMO JATENE;;-23.492;-46.64534
86;IND;;87;2003;;PMSP;ILUMINAÇÃO PÚBLICA;RUA QUINTA DA MAGNÓLIA;;JD IPANEMA;CELSO DO CARMO JATENE;;-23.5588;-46.49832
87;IND;;88;2003;;PMSP;LIMPEZA NA VIA PÚBLICA;RUA AGUARAIBA;;SANTO AMARO;CELSO DO CARMO JATENE;;-23.66492;-46.69628
88;IND;;89;2003;;PMSP;LIMPEZA DO CÓRREGO DA FAZENDA.;RUA ABETO;;JD ITAPEMA;CELSO DO CARMO JATENE;;-23.60228;-46.62761
89;IND;;90;2003;;PMSP;LIMPEZA DE BUEIROS.;RUA ALBANO LAZIALE;;VILA ARISI;CELSO DO CARMO JATENE;;-23.55762;-46.51373
90;IND;;91;2003;;PMSP;LIMPEZA DE CÓRREGO;RUA CONCEIÇÃO DO RIO VERDE;;VILA BUENOS AIRES;CELSO DO CARMO JATENE;;-23.51007;-46.50952
91;IND;;92;2003;;PMSP;OBSTRUÇÃO DE BURACO;RUA CONCEIÇÃO DO RIO VERDE;;VILA BUENOS AIRES;CELSO DO CARMO JATENE;;-23.51007;-46.50952
92;IND;;93;2003;;PMSP;CAPEAMENTO ASFÁLTICO;RUA PEDRO VOSS;;VILA CARRÃO;CELSO DO CARMO JATENE;;-23.55901;-46.5296
93;IND;;94;2003;;PMSP;REDUTOR DE VELOCIDADE.;RUA TENENTE CORONEL SOARES NEIVA C/AV IBIUNA;;VILA ARICANDUVA;CELSO DO CARMO JATENE;;-23.5371099;-46.54193
94;IND;;95;2003;;PMSP;PODA DE ÁRVORE;RUA BARTOLOMEU DOS SANTOS;;CHÁCARA SANTANA;CELSO DO CARMO JATENE;;-23.66856;-46.74794
95;IND;;96;2003;;PMSP;REMOÇÃO DE ÁRVORE;RUA BARTOLOMEU DOS SANTOS;;CHÁCARA SANTANA;CELSO DO CARMO JATENE;;-23.66856;-46.74794
96;IND;;97;2003;;PMSP;ILUMINAÇÃO PÚBLICA;AV HEITOR ANTONIO EIRAS GARCIA;;VILA NOVA ESPERANÇA;CELSO DO CARMO JATENE;;-23.57443;-46.73926
97;IND;;98;2003;;PMSP;PAVIMENTAÇÃO;RUA JOSÉ BARBOSA;;JD DAS VERTENTES;CELSO DO CARMO JATENE;;-23.59191;-46.7441
98;IND;;99;2003;;PMSP;CAPEAMENTO ASFÁLTICO;RUA JOÃO CORREA DA SILVA;;JD DAS VERTENTES;CELSO DO CARMO JATENE;;-23.5907899;-46.74463
99;IND;;100;2003;;PMSP;REDE DE ESGOTO;RUA JOÃO CORREA DA SILVA;;JD DAS VERTENTES;CELSO DO CARMO JATENE;;-23.5907899;-46.74463
100;IND;;101;2003;;PMSP;SOLICITA A CONTINUAÇÃO DAS OBRAS DE CANALIZAÇÃO EIMPLANTAÇÃO DO VIÁRIO DO CÓRREGO FRANQUINHO.;;;;ANTONIO DE PAIVA MONTEIRO Fo.;;;
101;IND;;102;2003;;PMSP;REFORMA DO OSSÁRIO.;CEMITÉRIO DA IV PARADA;;TATUAPÉ;ANTONIO DE PAIVA MONTEIRO Fo.;;;
102;IND;;103;2003;;PMSP;RETIRADA DE ENTULHO;RUA FREI JOÃO;;VILA NAIR;DALTON SILVANO DO AMARAL;;-23.61008;-46.60781
103;IND;;104;2003;;PMSP;LIMPEZA DE TERRENO;RUA AMADOR LOURENÇO;;VILA CONSTÂNCIA;DALTON SILVANO DO AMARAL;;-23.66904;-46.6691
104;IND;;105;2003;;PMSP;APURAÇÃO PARA VERIFICAR BARULHO EXCESSIVO ATÉ A MADRUGADA.;RUA SANTO EGIDIO, 136;;SANTA TEREZINHA;DALTON SILVANO DO AMARAL;;-20.549937;-48.5908747
105;IND;;106;2003;;PMSP;BARES DESRESPEITANDO A LEI DO SILÊNCIO.;RUA BOM PASTOR;;IPIRANGA;WILLIAM BOSS WOO;;-23.58532;-46.60757
106;IND;;107;2003;;SECR MUN DE ABASTECIMENTO;BARES DESRESPEITANDO A LEI DO SILÊNCIO.;RUA BOM PASTOR;;IPIRANGA;WILLIAM BOSS WOO;;-23.58532;-46.60757
107;IND;;108;2003;;PMSP;DESOBSTRUÇÃO DE BUEIRO;AV ELIS MAAS;;CAPÃO REDONDO;GILBERTO TANOS NATALINI;;-23.66578;-46.7709199
108;IND;;109;2003;;PMSP;DESASSOREAMENTO CÓRREGO;AV TOMAZ MORGAN;;GRAJAÚ;GILBERTO TANOS NATALINI;;-23.52486;-46.64421
109;IND;;110;2003;;SUBPREFEITO TREMEMBÉ/JAÇANÃ;CAPINAÇÃO;RUA LUIS ANTONIO DE OLIVEIRA E RUA DAS CATILÉIAS;;VILA NOVA MAZZEI;CARLOS ALBERTO PLETZ NEDER;;-23.46032;-46.59899
110;IND;;111;2003;;SUBPREFEITO DE ITAQUERA;SOLICITA A CONSTRUÇÃO DE CASA DE CULTURA.;VILA SANTANA;;ITAQUERA;CARLOS ALBERTO PLETZ NEDER;;-23.64779;-46.66574
111;IND;;112;2003;;SECRETÁRIO MUNICIPAL DE CULTURA;SOLICITA A CONSTRUÇÃO DE CASA DE CULTURA.;VILA SANTANA;;ITAQUERA;CARLOS ALBERTO PLETZ NEDER;;-23.64779;-46.66574
112;IND;;113;2003;;CET;SOLICITA A AGILIZAÇÃO NA TRAMITAÇÃO DO PROCESSO N000.000.104-03*59.;;;;CARLOS ALBERTO PLETZ NEDER;;;
113;IND;;114;2003;;SUBPREFEITO DE SANTO AMARO;SOLICITA A REURBANIZAÇÃO DA PRAÇA TUNEY ARANTES, CCOM INSTALAÇÃO DE EQUIPAMENTOS ESPORTIVOS NO LOCAL;;;;CARLOS ALBERTO PLETZ NEDER;;;
114;IND;;115;2003;;DIMA/SEMAB;SOLICICITA A FISCALIZAÇÃO DE POLUIÇÃO SONORA E CONDIÇÕES DE HIGIENE EM ESTABELCIMENTO COMERCIAL.;;;RUA DOS PINHEIROS, 382;CARLOS ALBERTO PLETZ NEDER;;;
115;IND;;116;2003;;DISTRITO DE SAÚDE PINHEIROS;SOLICITA A FISCALIZAÇÃO DE POLUIÇÃO SONORA E CONDIÇÕES DE HIGIENE EM ESTABELECIMENTO COMERCIAL.;RUA DOS PINHEIROS, 382;;;CARLOS ALBERTO PLETZ NEDER;;-23.56514;-46.68169
116;IND;;117;2003;;SUBPREFEITO DE PINHEIROS;SOLICITA A FISCALIZAÇÃO DE POLUIÇÃO SONORA E CONDIÇÕES EM ESTABELECIMENTO COMERCIAL.;RUA DOS PINHEIROS, 382;;;CARLOS ALBERTO PLETZ NEDER;;-23.56514;-46.68169
117;IND;;118;2003;;SECRETÁRIO MUNICIPAL DE SAÚDE;SOLICITA A REALIZAÇÃO IMEDIATA DE CONCURSO PÚBLICOPARA PREENCHIMENTO DOS CARGOS VAGOS DE CIRURGIÃO;;;;CARLOS ALBERTO PLETZ NEDER;;;
118;IND;;119;2003;;SECRETARIA MUN DE GESTÃO PÚBLICA;SOLICITA A REALIZAÇÃO IMEDIATA DE CONCURSO PÚBLICO PARA PREENCHIMENTO DOS CARGOS VAGOS DE CIRURGIÃO;;;;CARLOS ALBERTO PLETZ NEDER;;;
119;IND;;120;2003;;SUBPREFEITO DE ITAQUERA;SOLICITA A LIMPEZA DA PRAÇA;PRAÇA DO CORETO;;JARDIM IPANEMA;CARLOS ALBERTO PLETZ NEDER;;-23.68857;-46.7117
120;IND;;121;2003;;SUBPREFEITO DE ITAQUERA;SOLICITA A REALIZAÇÃO DE RECAPEAMENTO ASFÁLTICO.;RUA QUINTA DA MAGNÓLIA.;;JARDIM IPENEMA;CARLOS ALBERTO PLETZ NEDER;;-23.5588;-46.49832
121;IND;;122;2003;;CET;SOLICITA A REALIZAÇÃO DEESTUDO TÉCNICO PARA FINS DE PROIBIÇÃO DO TRÁFEGO COM ALTA TONELAGEM.;RUA QUINTA DA MAGNÓLIA;;JARDIM IPANEMA;CARLOS ALBERTO PLETZ NEDER;;-23.5588;-46.49832
122;IND;;123;2003;;SUBPREFEITURA DO CENTRO;UTILIZAÇÃO DO LOCAL COMO BANHEIRO PÚBLICO;ACESSO AO TÚNEL DA RUA FREDERICO ALVARENGA PARA AAV RANGEL PESTANA;;;JOSE RICARDO FRANCO MONTORO;;;
123;IND;;124;2003;;ILUME;ILUMINAÇÃO PÚBLICA.;TRAVESSA ADELAIDE LOPES RODRIGUES, 68;;;JOSE RICARDO FRANCO MONTORO;;-23.48225;-46.60947
124;IND;;125;2003;;SECRETÁRIO MUNICIPAL DE IMPLEMENTAÇÃO DA;SEMÁFORO;AVENIDA/ESTRADA DA SANTA INÊS;;SANTANA/TUCURUVI;JOSE RICARDO FRANCO MONTORO;;;
125;IND;;126;2003;;PMSP;SOLICITA SEJA DENOMINADO DE ANDRÉ PAULINO, A EMEIDO JARDIM CACHOEIRA.;;;;JOSE VIVIANI FERRAZ;;;
126;IND;;127;2003;;PMSP;IMPLANTAÇÃO DE LUMINÁRIAS.;RUA ROSA DO ULTRAMAR;;LAJEADO/GUAIANASES;JOSE VIVIANI FERRAZ;;-23.55064;-46.41308
127;IND;;128;2003;;PMSP;IMPLANTAÇÃO DE LUMINÁRIAS.;RUA ROSEIRA FRANCESA;;LAJEADO/GUAIANASES;JOSE VIVIANI FERRAZ;;-23.55064;-46.41308
128;IND;;129;2003;;PMSP;IMPLANTAÇÃO DE LUMINÁRIAS.;RUA ITABERABA;;;JOSE VIVIANI FERRAZ;;-23.54202;-46.39929
129;IND;;130;2003;;PMSP;IMPLANTAÇÃO DE LUMINÁRIAS.;RUA JERÔNIMO CORTES;;LAJEADO;JOSE VIVIANI FERRAZ;;-23.54055;-46.39725
130;IND;;131;2003;;PMSP;PAVIMENTAÇÃOP;TRAVESSA DAS PEDRAS;;JD PALISTANO;JOSE VIVIANI FERRAZ;;-23.57191;-46.68685
131;IND;;132;2003;;PMSP;PAVIMENTAÇÃO;RUA AVELINO MATOS MACHADO;;PARQUE PAULISTANO;JOSE VIVIANI FERRAZ;;-23.48544;-46.4229399
132;IND;;133;2003;;PMSP;PAVIMENTAÇÃO;RUA FRANCISCO REIS;;JD PAULISTANO;JOSE VIVIANI FERRAZ;;-23.45577;-46.71058
133;IND;;134;2003;;PMSP;PAVIMENTAÇÃO;RUA BELA VISTA DE MINAS;;VILA HELENA;JOSE VIVIANI FERRAZ;;-23.48669;-46.41883
134;IND;;135;2003;;PMSP;PAVIMENTAÇÃO;RUA MANUEL MARQUES DE SOUZA;;JD GUARANI;JOSE VIVIANI FERRAZ;;-23.45764;-46.69196
135;IND;;136;2003;;PMSP;OPERAÇÃO TAPA-BURACO.;RUA PENSILVANIA;;CIDADE MONÇÕES;GILBERTO TANOS NATALINI;;-23.60839;-46.69068
136;IND;;137;2003;;PMSP;OPERAÇÃO TAPA-BURACO;AV LACERDA FRANCO;;CAMBUCI;GILBERTO TANOS NATALINI;;-23.568;-46.62336
137;IND;;138;2003;;PMSP;OPERAÇÃO TAPA-BURACO;RUA BUENO DE ANDRADE;;CAMBUCI;GILBERTO TANOS NATALINI;;-23.56572;-46.63106
138;IND;;139;2003;;PMSP;OPERAÇÃO TAPA-BURACO;RUA BUENO DE ANDRADE;;CAMBUCI;GILBERTO TANOS NATALINI;;-23.56572;-46.63106
139;IND;;140;2003;;PMSP;OPERAÇÃO TAPA-BURACO;RUA BUENO DE ANDRADE;;CAMBUCI;GILBERTO TANOS NATALINI;;-23.56572;-46.63106
140;IND;;141;2003;;PMSP;OPERAÇÃO TAPA-BURACO;RUA CAPITÃO GUILHERME POMPEU;;JD SAÚDE;GILBERTO TANOS NATALINI;;-23.61636;-46.6206699
141;IND;;142;2003;;PMSP;OPERAÇÃO TAPA-BURACO;AV LACERDA FRANCO;;CAMBUCI;GILBERTO TANOS NATALINI;;-23.568;-46.62336
142;IND;;143;2003;;PMSP;OPERAÇÃO TAPA-BRUACO;RUA CAPITÃO GUILHERME POMPEU;;JD SAÚDE;GILBERTO TANOS NATALINI;;-23.61636;-46.6206699
143;IND;;144;2003;;PMSP;OPERAÇÃO TAPA-BURACO.;RUA CEL SILVERIO MAGALHÃES;;VILA MORAES;GILBERTO TANOS NATALINI;;-23.62899;-46.6224
144;IND;;145;2003;;PMSP;OPERAÇÃO TAPA-BURACO;RUA MARCOS FERNANDES;;JD SAÚDE;GILBERTO TANOS NATALINI;;-23.61848;-46.61911
145;IND;;146;2003;;PMSP;OPERAÇÃO TAPA-BURACO.;RUA CEL SILVERIO MAGALHÃES;;VILA MORAES;GILBERTO TANOS NATALINI;;-23.62899;-46.6224
146;IND;;147;2003;;PMSP;OPERAÇÃO TAPA-BURACO;RUA BACKER;;CAMBUCI;GILBERTO TANOS NATALINI;;;
147;IND;;148;2003;;PMSP;OPERAÇÃO TAPA-BURACO;RUA TEODURETO SOUTO;;VILA MARIANA;GILBERTO TANOS NATALINI;;-23.56578;-46.61999
148;IND;;149;2003;;PMSP;OPERAÇÃO TAPA-BURACO;RUA TEODURETO SOUTO;;VILA MARIANA;GILBERTO TANOS NATALINI;;-23.56578;-46.61999
149;IND;;150;2003;;PMSP;OPERAÇÃO TAPA-BURACO;RUA TEODURETO SOUTO;;VILA MARIANA;GILBERTO TANOS NATALINI;;-23.56578;-46.61999
150;IND;;151;2003;;PMSP;OPERAÇÃO TAPA-BURACO;RUA TEODURETO SOUTO;;VILA MARIANA;GILBERTO TANOS NATALINI;;-23.56578;-46.61999
151;IND;;152;2003;;PMSP;OPERAÇÃO TAPA-BURACO;RUA MESQUITA;;VILA MARIANA;GILBERTO TANOS NATALINI;;-23.5792499;-46.62154
152;IND;;153;2003;;PMSP;OPERAÇÃO TAPA-BRUACO;RUA MESQUITA;;VILA MARIANA;GILBERTO TANOS NATALINI;;-23.5792499;-46.62154
153;IND;;154;2003;;PMSP;OPERAÇÃO TAPA-BURACO;RUA HEITOR PEIXOTO;;VILA MARIANA;GILBERTO TANOS NATALINI;;-23.60502;-46.63242
154;IND;;155;2003;;PMSP;OPERAÇÃO TAPA-BURACO;RUA MESQUITA;;VILA MARIANA;GILBERTO TANOS NATALINI;;-23.5792499;-46.62154
155;IND;;156;2003;;PMSP;OPERAÇÃO TAPA-BURACO;RUA HEITOR PEIXOTO;;VILA MARIANA;GILBERTO TANOS NATALINI;;-23.60502;-46.63242
156;IND;;157;2003;;PMSP;OPERAÇÃO TAPA-BURACO;RUA HEITOR PEIXOTO;;VILA MARIANA;GILBERTO TANOS NATALINI;;-23.60502;-46.63242
157;IND;;158;2003;;PMSP;OPERAÇÃO TAPA-BURACO;RUA HEITOR PEIXOTO;;VILA MARIANA;GILBERTO TANOS NATALINI;;-23.60502;-46.63242
158;IND;;159;2003;;PMSP;OPERAÇÃO TAPA-BURACO;RUA HEITOR PEIXOTO;;VILA MARIANA;GILBERTO TANOS NATALINI;;-23.60502;-46.63242
159;IND;;160;2003;;PMSP;OPERAÇÃO TAPA-BURACO;RUA MANOEL CARNEIRO SILVA;;JD SAÚDE;GILBERTO TANOS NATALINI;;-23.6146;-46.62496
160;IND;;161;2003;;PMSP;OPERAÇÃO TAPA-BURACO;RUA MESQUITA;;VILA MARIANA;GILBERTO TANOS NATALINI;;-23.5792499;-46.62154
161;IND;;162;2003;;PMSP;OPERAÇÃO TAPA-BURACO;RUA CAPITÃO GUILHERME POMPEU;;JD SAÚDE;GILBERTO TANOS NATALINI;;-23.61636;-46.6206699
162;IND;;163;2003;;PMSP;OPERAÇÃO TAPA-BURACO;AV FAGUNDES FILHO;;SÃO JUDAS;GILBERTO TANOS NATALINI;;-23.6271999;-46.63704
163;IND;;164;2003;;PMSP;OPERAÇÃO TAPA-BURACO;RUA MESQUITA;;VILA MARIANA;GILBERTO TANOS NATALINI;;-23.5792499;-46.62154
164;IND;;165;2003;;PMSP;OPERAÇÃO TAPA-BURACO;RUA MESQUITA;;VILA MARIANA;GILBERTO TANOS NATALINI;;-23.5792499;-46.62154
165;IND;;166;2003;;PMSP;OPERAÇÃO TAPA-BURACO;RUA BUENO DE ANDRADE;;CAMBUCI;GILBERTO TANOS NATALINI;;-23.56572;-46.63106
166;IND;;167;2003;;PMSP;OPERAÇÃO TAPA-BURACO;RUA BUENO DE ANDRADE;;CAMBUCI;GILBERTO TANOS NATALINI;;-23.56572;-46.63106
167;IND;;168;2003;;PMSP;OPERAÇÃO TAPA-BURACO;RUA BUENO DE ANDRADE;;CAMBUCI;GILBERTO TANOS NATALINI;;-23.56572;-46.63106
168;IND;;169;2003;;PMSP;OPERAÇÃO TAPA-BURACO;RUA BUENO DE ANDRADE;;CAMBUCI;GILBERTO TANOS NATALINI;;-23.56572;-46.63106
169;IND;;170;2003;;PMSP;OPERAÇÃO TAPA-BURACO;RUA BUENO DE ANDRADE;;CAMBUCI;GILBERTO TANOS NATALINI;;-23.56572;-46.63106
170;IND;;171;2003;;PMSP;OPERAÇÃO TAPA-BURACO;PÇA AMADEU AMARAL;;BELA VISTA;GILBERTO TANOS NATALINI;;-23.56834;-46.6436599
171;IND;;172;2003;;PMSP;OPERAÇÃO TAPA-BURACO;RUA ELLIS MAAS;;CAPÃO REDONDO;GILBERTO TANOS NATALINI;;-23.66578;-46.7709199
172;IND;;173;2003;;PMSP;OPERAÇÃO TAPA-BURACO;RUA ELLIS MAAS;;CAPÃO REDONDO;GILBERTO TANOS NATALINI;PARTIDO VERDE;-23.66578;-46.7709199
173;IND;;174;2003;;PMSP;OPERAÇÃO TAPA-BURACO;RUA ELLIS MAAS;;CAPÃO REDONDO;GILBERTO TANOS NATALINI;PARTIDO VERDE;-23.66578;-46.7709199
174;IND;;175;2003;;PMSP;OPERAÇÃO TAPA-BURACO;RUA ELLIS MAAS;;CAPÃO REDONDO;GILBERTO TANOS NATALINI;PARTIDO VERDE;-23.66578;-46.7709199
175;IND;;176;2003;;PMSP;OPERAÇÃO TAPA-BURACO;RUA ELLIS MAAS;;CAPÃO REDONDO;GILBERTO TANOS NATALINI;PARTIDO VERDE;-23.66578;-46.7709199
176;IND;;177;2003;;PMSP;OPERAÇÃO TAPA-BURACO;RUA PENSILVÂNIA;;CIDADE MONÇÕES;GILBERTO TANOS NATALINI;PARTIDO VERDE;-23.60839;-46.69068
177;IND;;178;2003;;PMSP;OPERAÇÃO TAPA-BURACO;RUA ELLIS MAAS;;CAPÃO REDONDO;GILBERTO TANOS NATALINI;PARTIDO VERDE;-23.66578;-46.7709199
178;IND;;179;2003;;PMSP;OPERAÇÃO TAPA-BURACO;RUA ELLIS MAAS;;CAPÃO REDONDO;GILBERTO TANOS NATALINI;PARTIDO VERDE;-23.66578;-46.7709199
179;IND;;180;2003;;PMSP;OPERAÇÃO TAPA-BURACO;RUA FELIPE CARDOSO;;JD SAÚDE;GILBERTO TANOS NATALINI;PARTIDO VERDE;-23.39845;-46.75327
180;IND;;181;2003;;PMSP;OPERAÇÃO TAPA-BURACO;RUA JERÔNIMO DA VEIGA;;CHÁCARA ITAIM;GILBERTO TANOS NATALINI;PARTIDO VERDE;-23.58186;-46.68273
181;IND;;182;2003;;PMSP;OPERAÇÃO TAPA-BURACO;RUA MAESTRO CHIAFFARELLI;;JD PAULISTA;GILBERTO TANOS NATALINI;PARTIDO VERDE;-23.57528;-46.66513
182;IND;;183;2003;;PMSP;OPERAÇÃO TAPA-BURACO;RUA ITACEMA;;ITAIM;GILBERTO TANOS NATALINI;PARTIDO VERDE;-23.57928;-46.6726
183;IND;;184;2003;;PMSP;OPERAÇÃO TAPA-BURACO;RUA RAFAEL DE BARROS;;PARAISO;GILBERTO TANOS NATALINI;PARTIDO VERDE;-23.57386;-46.6494799
184;IND;;185;2003;;PMSP;PAVIMENTAÇÃO;RUA CAETANO JULIANO;;INTERLAGOS;ANTONIO GOULART DOS REIS;PARTIDO SOCIAL DEMOCRATICO;-23.70524;-46.70895
185;IND;;186;2003;;PMSP;PAVIMENTAÇÃO;RUA WILLY AURELLI;;INTERLAGOS;ANTONIO GOULART DOS REIS;PARTIDO SOCIAL DEMOCRATICO;-23.70286;-46.711
186;IND;;187;2003;;PMSP;CANALIZAÇÃO DE CÓRREGO;RUA GUAXATUBA;;VILA ROLIM;ANTONIO GOULART DOS REIS;PARTIDO SOCIAL DEMOCRATICO;-23.66093;-46.70351
187;IND;;188;2003;;PMSP;PAVIMENTAÇÃO;RUA IRMÃ MARIA LOURENÇO;;SHANGRILÁ;ANTONIO GOULART DOS REIS;PARTIDO SOCIAL DEMOCRATICO;-23.76013;-46.66706
188;IND;;189;2003;;SECR MUN DE EDUCAÇÃO;TRANSFORMAÇÃO DO PRÉDIO MUNICIPAL OCIOSO DA ANTIGA EMEF PROF MARIA RITA DE CÁSSIA P S BRAGA.;RUA ANTONIO PEREIRA DE SÁ, 400;;JD AURÉLIO;CARLOS ALBERTO GIANNAZI;;-23.65876;-46.7821799
189;IND;;190;2003;;PMSP;REQUISIÇÃO DE PRÉDIO ABANDONADO DA CDHU.;RUA COLÔNIA LEOPOLDINA, 350;;VILA SILVIA;CARLOS ALBERTO GIANNAZI;;-23.49083;-46.50152
190;IND;;191;2003;;PMSP;PAVIMENTAÇÃO;RUA POXIM;;JD SÃO CARLOS;CARLOS ALBERTO GIANNAZI;;-23.59026;-46.67899
191;IND;;192;2003;;PMSP;LIMPEZA DE TERRENO BALDIO;ESTRADA MUNICIPAL;;JD ALMEIDA PRADO;CARLOS ALBERTO GIANNAZI;;-23.7776299;-46.68983
192;IND;;193;2003;;PMSP;INTENSIFICAR POLICIAMENTO NOS HORÁRIOS DE PICO.;RUA ZIKE TUMA;;JD UBIRAJARA;CARLOS ALBERTO GIANNAZI;;-23.68587;-46.67042
193;IND;;194;2003;;PMSP;REGULARIZAÇÃO DE ILUMINAÇÃO PÚBLICA;RUA ARMANDO DIAS;;CHÁCARA MAFALDA;CARLOS ALBERTO GIANNAZI;;-23.5712;-46.55626
194;IND;;195;2003;;PMSP;RETIRADA DE LIXO EM FRENTE E UMA EMPRESA DESATIVADA.;RUA SERRA DE JAIRE, 720;;QUARTA PARADA;GILBERTO TANOS NATALINI;;-23.54914;-46.58533
195;IND;;196;2003;;PMSP;OPERAÇÃO TAPA-BURACO;AV TREZE DE MAIO;;CENTRO;GILBERTO TANOS NATALINI;;-21.25671;-48.32022
196;IND;;197;2003;;PMSP;OPERAÇÃO TAPA-BURACO;AV TREZE DE MAIO;;CENTRO;GILBERTO TANOS NATALINI;;-21.25671;-48.32022
197;IND;;198;2003;;PMSP;OPERAÇÃO TAPA-BURACO;AV TREZE DE MAIO;;CENTRO;GILBERTO TANOS NATALINI;;-21.25671;-48.32022
198;IND;;199;2003;;PMSP;RECUPERAÇÃO DE VALETA.;RUA ANDRÉ MENDES;;JD DA SAÚDE;GILBERTO TANOS NATALINI;;-23.61587;-46.6224
199;IND;;200;2003;;PMSP;RECUPERAÇÃO DE VALETA.;RUA MARTINS PERES;;JD DA SAÚDE;GILBERTO TANOS NATALINI;;-23.61614;-46.61997
200;IND;;201;2003;;SUBPREFEITURA DE SANTO AMARO;PAINEL DE PUBLICIDADE COMPROMETENDO A SEGURANÇA NAVIA PÚBLICA.;AV JOÃO PEIXOTO VIEGAS;;JD CONSÓRCIO;JOSE RICARDO FRANCO MONTORO;;-23.67323;-46.6732299
201;IND;;202;2003;;PMSP;SINALIZAÇÃO E PINTURA DE LOMBADAS.;KM 37 DA ESTRADA DE PARELHEIROS;;PARELHEIROS;CARLOS ALBERTO GIANNAZI;;-23.82157;-46.70293
202;IND;;203;2003;;PMSP;AMPLIAÇÃO OU REFORÇO DE GALERIAS.;ENTRE AS RUAS DR JOSÉ AIRES NETO E POETISA COLUMBINA;;JD BONFIGLIOLI;CARLOS ALBERTO GIANNAZI;;-23.58177;-46.73686
203;IND;;204;2003;;PMSP;AMPLIAÇÃO OU REFORÇO DE GALERIAS.;ENTRES AS RUAS DR JOSÉ AIRES NETO E POETISA COLUMBBINA;;JD BONFIGLIOLI;CARLOS ALBERTO GIANNAZI;;-23.58177;-46.73686
204;IND;;205;2003;;PMSP;CESSÃO DE PARTE DA ÁREA PÚBLICA PERTENCENTE AO PRONTO SOCORRO DO BALNEÁRIO SÃO JOSÉ PARA CONSTRUÇÃO;BALNEÁRIO SÃO JOSÉ;;PARELHEIROS;CARLOS ALBERTO GIANNAZI;;-23.76946;-46.72122
205;IND;;206;2003;;PMSP;LIMPEZA DE ÁREA PÚBLICA;RUA DANIEL ALOMIA;;PQ RESIDENCIAL COCAIA;CARLOS ALBERTO GIANNAZI;;-23.7473;-46.66924
206;IND;;207;2003;;PMSP;COLOCAÇÃO DE PLACAS DE IDENTIFICAÇÃO DE RUAS.;RUAS DO BAIRRO BALNEÁRIO SÃO JOSÉ;;CAPELA DO SOCORRO;CARLOS ALBERTO GIANNAZI;;-23.6651;-46.7104799
207;IND;;208;2003;;PMSP;VERIFICAR SITUAÇÃO DA DISTRIBUIDORA DE BEBIDAS;RUA ROLANDO CURTI;;VL SANTA MARGARIDA;CARLOS ALBERTO GIANNAZI;;-23.4895;-46.65186
208;IND;;209;2003;;GOVERNADOR DO ESTADO DE SÃO PAULO;POLICIAMENTO DIÁRIO E OSTENSIVO NA ESCOLA ESTADUAL EMILIO SAKETA.;AV PAULO GUILGUER REIMBERG;;CHÁCARA SANTO AMARO;CARLOS ALBERTO GIANNAZI;;-23.7740699;-46.70586
209;IND;;210;2003;;PMSP E SECRETARIA MUNICIPAL DE EDUCAÇÃO;INDICA A NECESSIDADE URGENTE DE AMPLIAÇÃO DA EMEIPROF CELSO FERREIRA SILVA.;RUA PIETRO MONGINI;;VILA MISSIONÁRIA;CARLOS ALBERTO GIANNAZI;;-23.68887;-46.64813
210;IND;;211;2003;;PMSP E SECR MUN DE EDUCAÇÃO;INDICA A NECESSIDADE URGENTE DE AMPLIAÇÃO DA EMEIFRANCISCO MANUEL DA SILVA.;PÇA HÉLIO GOMES;;CAMPO GRANDE;CARLOS ALBERTO GIANNAZI;;;
211;IND;;212;2003;;PMSP;COMPLEMENTAÇÃO DE PAVIMENTAÇÃO.;RUA DO INVERNO;;JD HEDRON;ANTONIO LAURO CAMPANHA;;-23.4632599;-46.68919
212;IND;;213;2003;;PMSP;CONSTRUÇÃO DE UMA PONTE PARA PEDDESTRE.;RUA CONSCIÊNCIA NEGRA;;JD SÃO BENTO;GILBERTO TANOS NATALINI;;-23.67916;-46.78821
213;IND;;214;2003;;PMSP;OPERAÇÃO TAPA-BURACO;RUA MURIAÉ;;IPIRANGA;GILBERTO TANOS NATALINI;;;
214;IND;;215;2003;;PMSP;OPERAÇÃO TAPA-BURACO;RUA MURIAÉ;;IPIRANGA;GILBERTO TANOS NATALINI;;;
215;IND;;216;2003;;PMSP;OPERAÇÃO TAPA-BURACO;RUA 28 DE SETEMBRO;;IPIRANGA;GILBERTO TANOS NATALINI;;-23.5996099;-46.61074
216;IND;;217;2003;;PMSP;TAPA-BURACO;RUA 28 DE SETEMBRO, ALTURA DO N.514 -;;IPIRANGA - CEP 04267-000;GILBERTO TANOS NATALINI;;-23.59634;-46.61104
217;IND;;218;2003;;PMSP;TAPA-BURACO;RUA 28 DE SETEMBRO, ALTURA DO N.476;;IPIRANGA CEP 04267-000;GILBERTO TANOS NATALINI;;-23.5962285;-46.6110462
218;IND;;219;2003;;PMSP;TAPA-BURACO;RUA MAJOR FREIRE, ALTURA DO N.190;;IPIRANGA -CEP 04304-110;GILBERTO TANOS NATALINI;;-23.62766;-46.6390699
219;IND;;220;2003;;PMSP;TAPA-BURACO;RUA MAJOR FREIRE, ALTURA DO N.199;;IPIRANGA - CEP 04304-110;GILBERTO TANOS NATALINI;;-23.62766;-46.63897
220;IND;;221;2003;;PMSP;RECUPERAÇÃO DE VALETA;RUA MAJOR FREIRE, ALTURA DO N.455;;IPIRANGA - CEP 04304-110;GILBERTO TANOS NATALINI;;-23.62801;-46.63651
221;IND;;222;2003;;PMSP;TAPA-BURACO;RUA DR.NESTOR ALBERTO MACEDO, ALTURA DO N.30;;VILA MORAES -;GILBERTO TANOS NATALINI;;-23.6259512;-46.6201171
222;IND;;223;2003;;PMSP;TAPA-BURACO;RUA VIEIRA DE ALMEIDA, ALTURA DO N.461;;IPIRANGA;GILBERTO TANOS NATALINI;;-23.59425;-46.61168
223;IND;;224;2003;;PMSP;TAPA-BURACO;RUA GAMA LOBO, ALTURA DO N.930;;IPIRANGA;GILBERTO TANOS NATALINI;;-23.59223;-46.61258
224;IND;;225;2003;;PMSP;TAPA-BURACO;RUA GAMA LOBO, ALTURA DO N.914;;IPIRANGA;GILBERTO TANOS NATALINI;;-23.59188;-46.6126099
225;IND;;226;2003;;PMSP;TAPA-BURACO;RUA GAMA LOBO, ALTURA DO N.862;;IPIRANGA;GILBERTO TANOS NATALINI;;-23.59157;-46.61264
226;IND;;227;2003;;PMSP;TAPA-BURACO;RUA GAMA LOBO, ALTURA DO N.854;;IPIRANGA;GILBERTO TANOS NATALINI;;-23.59148;-46.61265
227;IND;;228;2003;;PMSP;TAPA-BURACO;RUA GAMA LOBO, ALTURA DO N.840;;IPIRANGA;GILBERTO TANOS NATALINI;;-23.59121;-46.61268
228;IND;;229;2003;;PMSP;OPERAÇÃO TAPA-BURACO;RUA GAMA LOBO;;IPIRANGA;GILBERTO TANOS NATALINI;;-23.59155;-46.61265
229;IND;;230;2003;;PMSP;OPERAÇÃO TAPA-BURACO;RUA GAMA LOBO;;IPIRANGA;GILBERTO TANOS NATALINI;;-23.59155;-46.61265
230;IND;;231;2003;;PMSP;OPERAÇÃO TAPA-BURACO;RUA GAMA LOBO;;IPIRANGA;GILBERTO TANOS NATALINI;;-23.59155;-46.61265
231;IND;;232;2003;;PMSP;OPERAÇÃO TAPA-BURACO;RUA GAMA LOBO;;IPIRANGA;GILBERTO TANOS NATALINI;;-23.59155;-46.61265
232;IND;;233;2003;;PMSP;OPERAÇÃO TAPA-BURACO;RUA GAMA LOBO;;IPIRANGA;GILBERTO TANOS NATALINI;;-23.59155;-46.61265
233;IND;;234;2003;;SUBPREFEITURA DE CAMPO LIMPO;DESOBSTRUÇÃO DE BUEIRO E CONSERTO DA TAMPA.;RUA JOÃO MEINBERG, 76-A;;JD SÃO LUIZ;GILBERTO TANOS NATALINI;;-23.6504444;-46.7409145
234;IND;;235;2003;;SUBPREFEITURA DO BUTANTÃ;PAINEL DE PUBLICIDADE COMPROMETENDO A SEGURANÇA NA VIA PÚBLICA.;TRAVESSA ARMANDO PEDRO GUGLIELMELLI;;BUTANTÃ;JOSE RICARDO FRANCO MONTORO;;-23.55618;-46.75107
235;IND;;236;2003;;PMSP;CANALIZAÇÃO DO CÓRREGO DO ITAIM.;AV ENG HEITOR EIRA GARCIA;;JD AMARALINA;RAUL SIQUEIRA CORTEZ JUNIOR;;-23.59809;-46.78319
236;IND;;237;2003;;PMSP;OPERAÇÃO TAPA-BURACOS E RECAPEAMENTO ASFÁLTICO;AV CENTRAL;;LAGOINHA;ANTONIO DE PAIVA MONTEIRO Fo.;;-23.48562;-46.68582
237;IND;;238;2003;;PMSP;POSTE COM LUMINÁRIA;RUA MONSENHOR PAULO FERNANDES;;JD CACHOEIRA;JOSE VIVIANI FERRAZ;;-23.4818399;-46.67728
238;IND;;239;2003;;PMSP;IMPLANTAÇÃO DE POSTES COM LUMINÁRIAS.;RUA VICENTE JORGE;;JD CACHOEIRA;JOSE VIVIANI FERRAZ;;-23.48177;-46.67655
239;IND;;240;2003;;PMSP;IMPLANTAÇÃO DE LUMINÁRIAS.;RUA LAGOA DA SERRA;;JD PAULISTANO;JOSE VIVIANI FERRAZ;;-23.45944;-46.71061
240;IND;;241;2003;;PMSP;TROCA DE LUMINÁRIAS.;RUA PUERTO DA PAZ;;PARQUE SÃO JOSÉ;JOSE VIVIANI FERRAZ;;-23.74258;-46.69435
241;IND;;242;2003;;PMSP;IMPLANTAÇÃO D ELUMINÁRIA.;RUA NOVE DE NOVEMBRO, 496;;VILA BELA VISTA;JOSE VIVIANI FERRAZ;;-23.47239;-46.65529
242;IND;;243;2003;;PMSP;IMPLANTAÇÃO DE ILUMINAÇÃO PÚBLICA;PÇA CEL SATURNINO DE CARVALHO;;JD BELÉM;JOSE VIVIANI FERRAZ;;-23.48941;-46.47703
243;IND;;244;2003;;PMSP;IMPLANTAÇÃO DE ILUMINAÇÃO PÚBLICA;RUA OLÍRIA FARIA DE LIMA;;VILA SIQUEIRA;JOSE VIVIANI FERRAZ;;-23.46098;-46.7055999
244;IND;;245;2003;;PMSP;IMPLANTAÇÃO DE ILUMINAÇÃO PÚBLICA;TRAVESSA DAS PEDRAS;;JD PAULISTANO;JOSE VIVIANI FERRAZ;;-23.72988;-46.70465
245;IND;;246;2003;;PMSP;COMPLEMENTAÇÃO DA PAVIMENTAÇÃO;RUA FRANCISCO BARROSO PEREIRA;;JD MATARAZZO;JOSE VIVIANI FERRAZ;;-23.48928;-46.48323
246;IND;;247;2003;;SPTRANS;INDICA A NECESSIDADE DE REGULARIZAR O HORÁRIO DALINHA 6228 - RIO PEQUENO/PÇA DA BANDEIRA.;;;;CARLOS ALBERTO PLETZ NEDER;;;
247;IND;;248;2003;;SOBPREFEITURA DA MOOCA;INSPEÇÃO DE OBRA/EDIFICAÇÃO EM CONSTRUÇÃO LOCALIZADA NA REFERIDA RUA.;RUA ITAPETI;;;JOSE RICARDO FRANCO MONTORO;;-23.55088;-46.56562
248;IND;;249;2003;;DIRETOR PRESIDENTE DA CONGÁS;TAPA BURACOS DE OBRAS DA CONGÁS;RUA JOAQUIM TÁVORA, ALTURA DO N.236;;VILA MARIANA;RUBENS WAGNER CALVO;;-23.58335;-46.63547
249;IND;;250;2003;;PMSP;SOLICITA QUE SECRET.ESCOLA SEJAM SUBMETIDOS AO REFERENDO DO CONS.ESCOLA E MANTIDOS FUNÇ.SECRETÁRIO;;;;CARLOS ALBERTO GIANNAZI;;;
250;IND;;251;2003;;PMSP;IMPLANTAÇÃO DE BRAÇO COM LUMINÁRIA, NO POSTE SPU/15/31921;RUA JERONIMO BUENO, NA ALTURA DO N.62;;LAJEADO-GUAIANAZES;JOSE VIVIANI FERRAZ;;-23.54429;-46.39626
251;IND;;252;2003;;PMSP;TROCA DE LUMINÁRIA, NO POSTE SPU/36/26773;RUA MANOEL DA MOTA COUTINHO;;LAJEADO - GUAIANAZES;JOSE VIVIANI FERRAZ;;-23.54748;-46.40148
252;IND;;253;2003;;PMSP;TROCA DE LUMINÁRIAS E TROCA DE BRAÇOS POR MAIS LONGA NOS POSTES;RUA SÃO LEANDRO, RUA ANTONIO RATES, RUA AGOSTINHOPEREIRA E RUA BALTAZAR DE QUADROS;;VILA PALMEIRAS;JOSE VIVIANI FERRAZ;;;
253;IND;;254;2003;;PMSP;TROCA DE LUMINÁRIAS;RUA VENTURA RANGEL,;;VILA PALMEIRAS;JOSE VIVIANI FERRAZ;;-23.49299;-46.68425
254;IND;;255;2003;;PMSP;REVISÃO E TROCA DE LUMINÁRIAS;RUA FORTUNATO DEVOTO;;JARDIM DAMASCENO;JOSE VIVIANI FERRAZ;;-23.44885;-46.69602
255;IND;;256;2003;;PMSP;TROCA DE BRAÇOS POR MAIS LONGAS E TROCA DE LUMINÁRIAS POR UMA MAIS POTENTE NOS POSTES;RUA ADAUTO FERNANDES DE ANDRADE;;VILA BANCÁRIA;JOSE VIVIANI FERRAZ;;-23.5953899;-46.50829
256;IND;;257;2003;;PMSP;TRANSFERENCIA DAS LINHAS DE ONIBUS N.3041, 3042 E3044 PARA PRÓXIMO DO CENTRAL PLAZA SHOPPING;PONTO FINAL DAS LINHAS DE ONIBUS N.3041 E 3042 E3044;;VILA PRUDENTE;CARLOS ALBERTO Q. BEZERRA JR.;;-23.57971;-46.58131
257;IND;;258;2003;;PMSP;IMPLANTAÇÃO DE UMA NOVA LINHA DE ONIBUS NO LOCAL;VILA SANTA ISABEL;;VILA SANTA ISABEL;CARLOS ALBERTO Q. BEZERRA JR.;;-23.32848;-46.231
258;IND;;259;2003;;PMSP;IMPLANTAÇÃO DE QUATRO POSTES COM LUMINÁRIAS;ESCADÃO EXISTENTE NA RUA VIRAJUBA, NA ALTURA DO N.13, QUE DÁ ACESSO PARA A RUA JOAQUIM FERREIRA DAROCHA;;BRASILANDIA;JOSE VIVIANI FERRAZ;;;
259;IND;;260;2003;;PMSP;TROCA DE LUMINÁRIAS NOS POSTES;RUA ROBERTO CORREIA, NO JARDIM SIDNEY;;JARDIM SIDNEY;JOSE VIVIANI FERRAZ;;-23.4573;-46.71678
260;IND;;261;2003;;PMSP;IMPLANTAÇÃO DE ILUMINAÇÃO PÚBLICA;RUA GASPAR DE SOUZA;;LAJEADO-GUAIANAZES;JOSE VIVIANI FERRAZ;;-23.5328899;-46.64637
261;IND;;262;2003;;PMSP;REVISÃO E TROCA DE LUMINÁRIAS;RUA SÃO ROQUE DE MINAS;;JARDIM PERI;JOSE VIVIANI FERRAZ;;-23.45332;-46.66179
262;IND;;263;2003;;PMSP;IMPLANTAÇÃO DE BRAÇO COM LUMINÁRIA NO POSTE;RUA ACIOLI, DEFRONTE AO N.390;;JARDIM ELISIO - VILA PENT;JOSE VIVIANI FERRAZ;;;
263;IND;;264;2003;;PMSP;IMPLANTAÇÃO DE POSTES COM LUMINÁRIAS;ATÉ A ALTURA DO N.300, DA RUA DO TIRO AO POMBO;;BRASILANDIA;JOSE VIVIANI FERRAZ;;;
264;IND;;265;2003;;PMSP;IMPLANTAÇÃO DE ILUMINAÇÃO PÚBLICA;AVENIDA MINISTRO PETRÔNIO PORTELA, DEFRONTE AO N.2243;;JARDIM IRACEMA - FREG. O;JOSE VIVIANI FERRAZ;;-23.4799845;-46.69568
265;IND;;266;2003;;PMSP;CONSERTO BOCA DE LOBO EM VIA PÚBLICA QUE ENCONTRA-SE VEDADA COM CIMENTO;RUA JAPARAIGUARA, ALTURA DO N.340;;ERMELINO MATARAZZO;ANTONIO LAURO CAMPANHA;;;
266;IND;;267;2003;;PMSP;GUINCHO DE ÕNIBUS ABANDONADO EM VIA PÚBLICA, UTILIZADO COMO ESCONDERIJO DE ASSALTANTES E US.DROGAS;RUA BOLIVIANOS ESQUINA COM A RUA ARTHUR FRIDERECH,;;ERMELINO MATARAZZO;ANTONIO LAURO CAMPANHA;;;
267;IND;;268;2003;;PMSP;GUINCHO ôniBUS abandonado em via pública, utilizado como esconderijo de assaltantes e usuários droga;RUA BOLIVIANOS ESQUINA COM A RUA ARTHUR FRIDERECH,;;ERMELINO MATARAZZO;ANTONIO LAURO CAMPANHA;;;
268;IND;;269;2003;;pmsp;falta de canalização do córrego no local indicado;av.manuel velho moreira, altura do n.1.058 e a ruaanselmo almeida monteiro -;;jd.colonial-;JOSE OLIMPIO SILVEIRA MORAES;;-23.60587;-46.47591
269;IND;;270;2003;;secretaria municipal de saúde;reinstalação dos serviços de consultório médicocomunitário;rua itaguaçava, 02 -;;jardim pantanal i;JOSE RICARDO FRANCO MONTORO;;-23.49012;-46.64865
270;IND;;271;2003;;pmsp;implantar faixa de trAnsito EXCLUSIVA;avenida fagundes filho, altura do número 276;;jabaquara;ANTONIO GOULART DOS REIS;;-23.62702;-46.63881
271;IND;;272;2003;;PMSP;TAPA-BURACO;ESTRADA M' BOI MIRIM, ALTURA DO N.2450;;JARDIM DAS FLORES;GILBERTO TANOS NATALINI;;-23.6759486;-46.7527181
272;IND;;273;2003;;PMSP;TAPA-BURACO;ESTRADA M'BOI MIRIM, ALTURA DO N.2636;;JARDIM DAS FLORES;GILBERTO TANOS NATALINI;;-23.67579;-46.75692
273;IND;;274;2003;;PMSP;TAPA-BURACO;RUA BONIFÁCIO DE MONTFERRAT, ALTURA DO N.36;;CHÁCARA SANTANA;GILBERTO TANOS NATALINI;;-23.6747;-46.74876
274;IND;;275;2003;;PMSP;TAPA-BURACO;ESTRADA M'BOI MIRIM, ALTURA DO N.515;;JARDIM DAS FLORES;GILBERTO TANOS NATALINI;;-23.67024;-46.7381
275;IND;;276;2003;;PMSP;TAPA-BURACO;ESTRADA M'BOI MIRIM, ALTURA DO N.505;;JARDIM DAS FLORES;GILBERTO TANOS NATALINI;;-23.67023;-46.73806
276;IND;;277;2003;;PMSP;TAPA-BURACO;ESTRADA M'BOI MIRIM, ALTURA DO N.3159;;JARDIM DAS FLORES;GILBERTO TANOS NATALINI;;-23.67746;-46.76158
277;IND;;278;2003;;PMSP;TAPA-BURACO;ESTRADA M'BOI MIRIM, ALTURA DO N.283;;JARDIM DAS FLORES;GILBERTO TANOS NATALINI;;-23.66961;-46.73605
278;IND;;279;2003;;PMSP;TAPA-BURACO;ESTRADA M'BOI MIRIM, ALTURA DO N. 3095;;JARDIM DAS FLORES;GILBERTO TANOS NATALINI;;-23.67729;-46.76093
279;IND;;280;2003;;PMSP;TAPA-BURACO;ESTRADA M'BOI MIRIM, ALTURA DO N.3030;;JARDIM DAS FLORES;GILBERTO TANOS NATALINI;;-23.6772513;-46.7598893
280;IND;;281;2003;;PMSP;TAPA-BURACO;RUA PADRE JOSÉ DE ANCHIETA, ALTURA DO N.868;;SANTO AMARO;GILBERTO TANOS NATALINI;;-23.65046;-46.7010099
281;IND;;282;2003;;PMSP;TAPA-BURACO;RUA BONIFÁCIO DE MONTFERRAT, ALTURA DO N.416;;CHÁCARA SANTANA;GILBERTO TANOS NATALINI;;-23.6730899;-46.74537
282;IND;;283;2003;;PMSP;TAPA-BURACO;RUA BONIFÁCIO DE MONTFERRAT, ALTURA DO N.284;;CHÁCARA SANTANA;GILBERTO TANOS NATALINI;;-23.6734699;-46.74684
283;IND;;284;2003;;PMSP;TAPA-BURACO;RUA PADRE JOSÉ DE ANCHIETA, ALTURA DOS NOS.1262 E1257;;SANTO AMARO;GILBERTO TANOS NATALINI;;-23.65298;-46.6982799
284;IND;;285;2003;;PMSP;TAPA-BURACO;ESTRADA M'BOI MIRIM, ALTURA DO N.2298;;JARDIM DAS FLORES;GILBERTO TANOS NATALINI;;-23.67557;-46.75527
285;IND;;286;2003;;PMSP;TAPA-BURACO;ESTRADA M'BOI MIRIM, ALTURA DO N.1485;;JARDIM DAS FLORES;GILBERTO TANOS NATALINI;;-23.6741345;-46.7467744
286;IND;;287;2003;;PMSP;TAPA-BURACO;ESTRADA M'BOI MIRIM, ALTURA DO N.1183;;JARDIM DAS FLORES;GILBERTO TANOS NATALINI;;-23.67286;-46.74407
287;IND;;288;2003;;PMSP;TAPA-BURACO;AV.SANTO AMARO, ALTURA DO N.7130;;SANTO AMARO;GILBERTO TANOS NATALINI;;-23.64273;-46.69999
288;IND;;289;2003;;PMSP;TAPA-BURACO;AV SANTO AMARO, ALTURA DO N.6913;;SANTO AMARO;GILBERTO TANOS NATALINI;;-23.6409999;-46.69865
289;IND;;290;2003;;PMSP;TAPA-BURACO;AV.SANTO AMARO, ALTURA DO N.7123;;SANTO AMARO;GILBERTO TANOS NATALINI;;-23.64277;-46.69979
290;IND;;291;2003;;PMSP;TAPA-BURACO;AV.GUIDO CALOI, ALTURA DO N.2160;;SANTO AMARO;GILBERTO TANOS NATALINI;;-23.6624112;-46.7261361
291;IND;;292;2003;;PMSP;TAPA-BURACO;ESTRADA M'BOI MIRIM, ALTURA DO N.763;;JARDIM DAS FLORES;GILBERTO TANOS NATALINI;;-23.67118;-46.74026
292;IND;;293;2003;;PMSP;TAPA-BURACO;ESTRADA M'BOI MIRIM, ALTURA DO N.803;;JARDIM DAS FLORES;GILBERTO TANOS NATALINI;;-23.6707925;-46.7396494
293;IND;;294;2003;;PMSP;REMOÇÃO DE LIXO E ENTULHO;RUA FREIRE DA SILVA, 171;;CAMBUCI;GILBERTO TANOS NATALINI;;-23.56406;-46.6158354
294;IND;;295;2003;;PMSO;OPERAÇÃO TAPA BURACO;RUA HERRY MATARAZZO;;JD IMBÉ;GILBERTO TANOS NATALINI;;-23.5231299;-46.64007
295;IND;;296;2003;;PMSP;RECUPERAÇÃO DE VALETA;RUA RIBAS DO RIO PARDO;;JD DAS FLORES;GILBERTO TANOS NATALINI;;-23.69013;-46.77314
296;IND;;297;2003;;PMSP;OPERAÇÃO TAPA-BURACO;AV COMANDADOR SANTANA;;CAPÃO REDONDO;GILBERTO TANOS NATALINI;;-23.67798;-46.78216
297;IND;;298;2003;;PMSP;OPERAÇÃO TAPA-BURACO;AV COMENDADOR SANTANA;;CAPÃO REDONDO;GILBERTO TANOS NATALINI;;-23.67854;-46.77202
298;IND;;299;2003;;PMSP;OPERAÇÃO TAPA-BURACO;AV COMENDADOR SANTANA;;CAPÃO REDONDO;GILBERTO TANOS NATALINI;;-23.67854;-46.77202
299;IND;;300;2003;;PMSP;OPERAÇÃO TAPA-BURACO;RUA PEDRO MIRANDA;;JD IMBÉ;GILBERTO TANOS NATALINI;;-23.67774;-46.76612
300;IND;;301;2003;;PMSP;OPERAÇÃO TAPA-BURACO;RUA PEDRO MIRANDA;;JD IMBÉ;GILBERTO TANOS NATALINI;;-23.67774;-46.76612
301;IND;;302;2003;;PMSP;OPERAÇÃO TAPA-BURACO;RUA PEDRO MIRANDA;;JD IMBÉ;GILBERTO TANOS NATALINI;;-23.67774;-46.76612
302;IND;;303;2003;;PMSP;OPERAÇÃO TAPA-BURACO;RUA PEDRO MIRANDA;;JD IMBÉ;GILBERTO TANOS NATALINI;;-23.67774;-46.76612
303;IND;;304;2003;;PMSP;OPERAÇÃO TAPA-BURACO;RUA PEDRO MIRANDA;;JD IMBÉ;GILBERTO TANOS NATALINI;;-23.67774;-46.76612
304;IND;;305;2003;;PMSP;OPERAÇÃO TAPA-BURACO;AV GUARAPIRANGA;;GUARAPIRANGA;GILBERTO TANOS NATALINI;;-23.68617;-46.73772
305;IND;;306;2003;;PMSP;OPERAÇÃO TAPA-BURACO;ASV GUARAPIRANGA;;GUARAPIRANGA;GILBERTO TANOS NATALINI;;-23.68617;-46.73772
306;IND;;307;2003;;PMSP;RECUPERAÇÃO DE VALETA;RUA ERASMO GROSSER;;JD IMBÉ;GILBERTO TANOS NATALINI;;-23.67634;-46.76541
307;IND;;308;2003;;PMSP;OPERAÇÃO TAPA-BURACO;RUA ERASMO GROSSER;;JD IMBÉ;GILBERTO TANOS NATALINI;;-23.67634;-46.76541
308;IND;;309;2003;;PMSP;RECUPERAÇÃO DE VALETA.;AV VISCONDE DO RIO GRANDE;;JD IMBÉ;GILBERTO TANOS NATALINI;;-23.67992;-46.77478
309;IND;;310;2003;;PMSP;OPERAÇÃO TAPA-BURACO;AV VISCONDE DO RIO GRANDE;;JD IMBÉ;GILBERTO TANOS NATALINI;;-23.67992;-46.77478
310;IND;;311;2003;;PMSP;OPERAÇÃO TAPA-BURACO;RUA HERRY MATARAZZO;;JD IMBÉ;GILBERTO TANOS NATALINI;;-23.5231299;-46.64007
311;IND;;312;2003;;PMSP;RECUPERAÇÃO DE VALETA.;RUA HERRY MATARAZZO;;JD IMBÉ;GILBERTO TANOS NATALINI;;-23.5231299;-46.64007
312;IND;;313;2003;;PMSP;OPERAÇÃO TAPA-BURACO;RUA HERRY MATARAZZO;;JD IMBÉ;GILBERTO TANOS NATALINI;;-23.5231299;-46.64007
313;IND;;314;2003;;PMSP;OPERAÇÃO TAPA-BURACO;AV VER JOSÉ DINIZ;;STO AMARO;GILBERTO TANOS NATALINI;;-23.61326;-46.67838
314;IND;;315;2003;;PMSP;DESOBSTRUÇÃO DE BUEIRO.;RUA VICTOR BALTARDI;;JD IMBÉ;GILBERTO TANOS NATALINI;;-23.67763;-46.76525
315;IND;;316;2003;;PMSP;OPERAÇÃO TAPA-BURACO;RUA VICTOR BALTRADI;;JD IMBÉ;GILBERTO TANOS NATALINI;;-23.67763;-46.76525
316;IND;;317;2003;;PMSP;OPERAÇÃO TAPA-BURACO;RUA VICTOR BALTARDI;;JD IMBERÉ;GILBERTO TANOS NATALINI;;-23.70679;-46.69321
317;IND;;318;2003;;PMSP;ILUMINAÇÃO PÚBLICA;RUA URBANO SAMPAIO GÓES;;CHÁCARA COCAIA;GILBERTO TANOS NATALINI;;-23.77017;-46.69418
318;IND;;319;2003;;PMSP;ILUMINAÇÃO;RUA JOEL DE CARVALHO;;CHÁCARA COCAIA;GILBERTO TANOS NATALINI;;-23.77045;-46.6929299
319;IND;;320;2003;;PMSP;ILUMINAÇÃO;TRAVESSA DA RUA PROF HAROLDO NOGUEIRA;;CHÁCARA COCAIA;GILBERTO TANOS NATALINI;;-23.76746;-46.69381
320;IND;;321;2003;;PMSP;OPERAÇÃO TAPA-BURACO;RUA PROF FREITAS JULIÃO;;JD LUSO;GILBERTO TANOS NATALINI;;-23.68875;-46.63655
321;IND;;322;2003;;PMSP;OPERAÇÃO TAPA-BURACO;RUA PASCHOAL GRIECO;;CIDADE JULIA;GILBERTO TANOS NATALINI;;-23.69201;-46.64112
322;IND;;323;2003;;PMSP;OPERAÇÃO TAPA-BURACO;RUA SÃO SEBASTIÃO;;SANTO AMARO;GILBERTO TANOS NATALINI;;-23.63266;-46.6897
323;IND;;324;2003;;PMSP;OPERAÇÃO TAPA BURACO;RUA ALCIDES ARQUEDAS;;JD LUSO;GILBERTO TANOS NATALINI;;-23.68845;-46.63861
324;IND;;325;2003;;PMSP;OPERAÇÃO TAPA-BURACO;RUA BERLAMINO BELISÁRIO DE ARAUJO;;JD ITAPURA;GILBERTO TANOS NATALINI;;-23.69373;-46.64439
325;IND;;326;2003;;PMSP;OPERAÇÃO TAPA-BURACO;RUA JUDITE MENZIONE;;VILA MISSIONÁRIA;GILBERTO TANOS NATALINI;;-23.69011;-46.64863
326;IND;;327;2003;;PMSP;OPERAÇÃO TAPA-BURACO.;RUA MADRE GIUSEPPINA;;CIDADE JULIA;GILBERTO TANOS NATALINI;;-23.68975;-46.64918
327;IND;;328;2003;;PMSP;OPERAÇÃO TAPA=BURACO;RUA PIRACAS;;BALNEÁRIO SÃO FRANCISCO;GILBERTO TANOS NATALINI;;-23.70052;-46.65109
328;IND;;329;2003;;PMSP;AOPERAÇÃO TAPA-BURACO;RUA DAS ESPADAS;;BALNEÁRIO SÃO FRACISCO;GILBERTO TANOS NATALINI;;-23.69985;-46.65175
329;IND;;330;2003;;PMSP;OPERAÇÃO TAPA-BURACO;RUA PIRACAS;;BALNEÁRIO SÃO FRANCISCO;GILBERTO TANOS NATALINI;;-23.70052;-46.65109
330;IND;;331;2003;;PMSP;OPERAÇÃO TAPA-BURACO;RUA AURÉLIO PEREZ;;VILA PRINCESA ISABEL;GILBERTO TANOS NATALINI;;-23.54213;-46.41935
331;IND;;332;2003;;PMSP;OPERAÇÃO TAPA-BURACO;RUA UNIVERSAL;;VILA LOURDES;GILBERTO TANOS NATALINI;;-23.52912;-46.39904
332;IND;;333;2003;;PMSP;OPERAÇÃO TAPA-BURACO;RUA CONDE DE PORTO ALEGRE;;CAMPO BELO;GILBERTO TANOS NATALINI;;-23.61806;-46.66973
333;IND;;334;2003;;PMSP;OPERAÇÃO TAPA-BURACO;RUA CONDE DE PORTO ALEGRE;;CAMPO BELO;GILBERTO TANOS NATALINI;;-23.61806;-46.66973
334;IND;;335;2003;;PMSP;IMPLANTAÇÃO DE TRES POSTES.;RUA HENRIQUETA PANTALEÃO;;JD PRINCESA;JOSE VIVIANI FERRAZ;;-23.45351;-46.69478
335;IND;;336;2003;;PMSP;IMPLANTAÇÃO DE BRAÇOS LONGOS COM LUMINÁRIAS.;RUA PROJETADA, 5;;JD PRINCESA;JOSE VIVIANI FERRAZ;;-23.434;-46.71182
336;IND;;337;2003;;PMSP;IMPLANTAÇÃO DE UM POSTE.;PÇA DOMINGOS BASTOS;;VILA PORTUGAL;JOSE VIVIANI FERRAZ;;-23.49444;-46.71651
337;IND;;338;2003;;PMSP;IMPLANTAÇÃO DE TRES POSTES COM LUMINÁRIAS.;PÇA BERNARDO DE AZEVEDO;;VILA BONILHA NOVA;JOSE VIVIANI FERRAZ;;-23.49352;-46.71636
338;IND;;339;2003;;PMSP;IMPLANTAÇÃO DE TRES POSTES.;RUA CECILIA BONILHA;;VILA BONILHA NOVA;JOSE VIVIANI FERRAZ;;-23.49382;-46.71544
339;IND;;340;2003;;PMSP;TROCA DE LUMINÁRIAS.;RUA FELISBERTO FREIRE;;VILA CONTINENTAL;JOSE VIVIANI FERRAZ;;-23.4678;-46.65601
340;IND;;341;2003;;PMSP;INDICA O NOME DO JOGADOR DE FUTEBOL SENHOR JÚLIO BBOTELHO, PARA DENOMINAR VIA PÚBLICA.;¨;;;GILBERTO TANOS NATALINI;;-23.56287;-46.65469
341;IND;;342;2003;;PMSP;IMPLEMENTAÇÃO DE POSTO DE SAÚDE BNO LOCAL ONDE ERAO ESPAÇO DO JARDIM SÃO CARLOS.;AV CÉSAR AUGUSTO ROMANO, 250;;JD SÃO CARLOS;WILLIAM BOSS WOO;;-23.50883;-46.47186
342;IND;;343;2003;;SUBPREFEITURA DE ERMELINO MATARAZZO;IMPLEMENTAÇÃO DE POSTO DE SAÚDE NO LOCAL ONDE ERAO ESPAÇO DO JARDIM SÃO CARLOS.;AV CÉSAR AUGUSTO ROMANO, 250;;JD SÃO CARLOS;WILLIAM BOSS WOO;;-23.50883;-46.47186
343;IND;;344;2003;;PMSP;INSTALAÇÃO DE SEMÁFORO.;CRUZAMENTO DA AV ABEL TAVARES C/ RUA JACIRA FERRARI DE OLIVEIRA;;E MATARAZZO;WILLIAM BOSS WOO;;-23.48714;-46.47442
344;IND;;345;2003;;SABESP;OBSTRUÇÃO DE BURACO;RUA ALFREDO COSTA;;ITAQUERA;CELSO DO CARMO JATENE;;-23.5315;-46.45008
345;IND;;346;2003;;PMSP;SOLICITA COLOCAR PLACAS DE ESTACIONAMENTO PROIBIDONA AV ÁGUAS ESPRAIADAS.;;;;CARLOS ALBERTO Q. BEZERRA JR.;;;
346;IND;;347;2003;;PMSP;GALERIA DE ÁGUAS PLUVIAIS.;RUA SOSSÓIA;;CIDADE PEDRO;JOAO ANTONIO DA SILVA FILHO;;-23.50111;-46.46359
347;IND;;348;2003;;PMSP;INDICA A NECESSIDADE DE COLOCAÇÃO DE RECIPIENTES PPARA DEPÓSITO DE LIXO RECICLÁVEL NAS RUAS DE SÃO;;;;ALTAMIRO CELSO CARDOSO;;;
348;IND;;349;2003;;PMSP;IMPLANTAÇÃO DE UMA BRAÇO LONGO COM LUMINÁRIA.;RUA PEROLA DO OESTE, 121;;JD ALVORADA;JOSE VIVIANI FERRAZ;;-23.4744199;-46.68025
349;IND;;350;2003;;PMSP;ILUMINAÇÃO PÚBLICA;RUA DA BALSA;;FREGUESIA DO Ó;JOSE VIVIANI FERRAZ;;;
350;IND;;351;2003;;PMSP;IMPLANTAÇÃO DE DOIS POSTES COM LUMINÁRIAS.;RUA AUGUSTO JOSÉ PEREIRA, 414;;VILA CRUZ DAS ALMAS;JOSE VIVIANI FERRAZ;;-23.47673;-46.697
351;IND;;352;2003;;PMSP;IMPLANTAÇÃO DE DOIS POSTES COM LUMINÁRIAS.;RUA BENEDITO DA COSTA;;JD CIDADE PIRITUBA;JOSE VIVIANI FERRAZ;;-23.47884;-46.72388
352;IND;;353;2003;;PMSP;REVISÃO E TROCA DE LUMINÁRIAS.;RUA DO PERDÃO;;VILA MORRO GRANDE;JOSE VIVIANI FERRAZ;;-23.47159;-46.70153
353;IND;;354;2003;;PMSP;TROCA DE LUMINÁRIAS.;RUA AMARO DOMINGUES;;ITABERABA;JOSE VIVIANI FERRAZ;;-23.48614;-46.69319
354;IND;;355;2003;;RUA MINISTRO BARBOSA LIMA;IMPLANTAÇÃO DE ILUMINAÇÃO PÚBLICA;;;JD CACHOEIRA;JOSE VIVIANI FERRAZ;;;
355;IND;;356;2003;;PMSP;OPERAÇÃO TAPA-BURACO;RUA JURANDIR MORAES;;VILA BANCÁRIA MUNHOZ;GILBERTO TANOS NATALINI;;-23.48774;-46.68434
356;IND;;357;2003;;PMSP;OPERAÇÃO TAPA-BURACO;RUA ALFREDO MARCONDES MACHADO;;VILA BANCÁRIA MUNHOZ;GILBERTO TANOS NATALINI;;-23.48596;-46.68424
357;IND;;358;2003;;PMSP;OPERAÇÃO TAPA-BURACO;AV ENG ARNALDO DE ARRUDA PEREIRA;;JABAQUARA;GILBERTO TANOS NATALINI;;-23.66675;-46.63693
358;IND;;359;2003;;PMSP;OPERAÇÃO TAPA-BURACO;RUA DR DJALMA PEREIRA FRANCO;;VILA SANTA CATARINA;GILBERTO TANOS NATALINI;;-23.65137;-46.6648799
359;IND;;360;2003;;PMSP;OPERAÇÃO TAPA-BURACO;RUA DR DJALMA PEREIRA FRANCO;;VILA SANTA CATARINA;GILBERTO TANOS NATALINI;;-23.65137;-46.6648799
360;IND;;361;2003;;PMSP;OPERAÇÃO TAP-BURACO;RUA DR DJALMA PEREIRA FRANCO;;VILA SANTA CATARINA;GILBERTO TANOS NATALINI;;-23.65137;-46.6648799
361;IND;;362;2003;;PMSP;OPERAÇÃO TAPA-BURACO;RUA BOTUCATU;;VILA CLEMENTINO;GILBERTO TANOS NATALINI;;-23.59776;-46.6427
362;IND;;363;2003;;PMSP;OPERAÇÃO TAPA-BURACO;AV VER JOSÉ DINIZ;;STO AMARO;GILBERTO TANOS NATALINI;;-23.61326;-46.67838
363;IND;;364;2003;;PMSP;OPERAÇÃO TAPA-BURACO;AV VER JOSÉ DINIZ;;STO AMARO;GILBERTO TANOS NATALINI;;-23.61326;-46.67838
364;IND;;365;2003;;PMSP;OPERAÇÃO TAPA-BURACO;AV SÃO MIGUEL;;VILA CONSTÂNCIA;GILBERTO TANOS NATALINI;;-23.67116;-46.6721999
365;IND;;366;2003;;PMSP;OPERAÇÃO TAPA BURACO;RUA CATANDUVAS DO SUL;;JD PRIMAVERA;GILBERTO TANOS NATALINI;;-23.48813;-46.68148
366;IND;;367;2003;;PMSP;SOLICITA INSTALAÇÃO DE TELEFONE PÚBLICO NAS DEPENDÊNCIAS DO ESTABELECIMENTO COMERCIAL BAR E LANCHES;;;;WADIH JORGE MUTRAN;;;
367;IND;;368;2003;;PMSP;ILUMINAÇÃO PÚBLICA;RUA LINO COUTINHO, CISPLATINA, 786, GENERAL LECOR,392, MONS JOÃO PEREIRA CAMARGO E SILVA, 110, RUA1822.;;IPIRANGA;WILLIAM BOSS WOO;;;
368;IND;;369;2003;;PMSP;COLOCAÇÃO DE BANCOS EM PÇA PÚBLICA.;PÇA J0SÉ FELARDI;;JD NORDESTE;ANTONIO LAURO CAMPANHA;;-23.50387;-46.66414
369;IND;;370;2003;;PMSP;INSTALAÇÃO DE LÂMPADAS EM PÇA PÚBLICA.;PÇA JOSÉ FELARDI;;JD NORDESTE;ANTONIO LAURO CAMPANHA;;-23.50387;-46.66414
370;IND;;371;2003;;PMSP;INSTALAÇÃO DE LÂMPADAS EM PRAÇA PÚBLICA;PÇA JOSÉ FELARDI;;JARDIM NORDESTE;ANTONIO LAURO CAMPANHA;;-23.53025;-46.48317
371;IND;;372;2003;;PMSP;REFORMA DA QUADRA DE FUTEBOL DE SALÃO.;PÇA SANTA QUITÉRIA;;PENHA;ANTONIO LAURO CAMPANHA;;;
372;IND;;373;2003;;PMSP;CONSTRUÇÃO DE PISTA PARA CAMINHADA EM PÇA PÚBLICA;PÇA SANTA QUITÉRIA;;JD NORDESTE;ANTONIO LAURO CAMPANHA;;-23.50387;-46.66414
373;IND;;374;2003;;PMSP;COLOCAÇÃO DE BANCOS EM PRAÇA PÚBLICA.;PÇA SANTA QUITÉRIA;;JD NORDESTE;ANTONIO LAURO CAMPANHA;;-23.50387;-46.66414
374;IND;;375;2003;;PMSP;TELEFONE PÚBLICO;RUA SILVA LISBOA, 257;;VILA NHOCUNÉ;ANTONIO LAURO CAMPANHA;;-23.5452;-46.49707
375;IND;;376;2003;;PMSP;PAVIMENTAÇÃO;RUA FRANCISCO LEITE ESQUERDO;;JD JAQUELINE;CELSO DO CARMO JATENE;;-23.5939;-46.75448
376;IND;;377;2003;;PMSP;PODA DE ÁRVORE;RUA JOÃO DE CASTRO SARMENTO;;JD OLIMPIA;CELSO DO CARMO JATENE;;-23.59087;-46.74781
377;IND;;378;2003;;PMSP;PODA DE 18 ÁRVORES;PÇA PARQUE JARDIM OLIMPIA;;JD OLIMPIA;CELSO DO CARMO JATENE;;;
378;IND;;379;2003;;PMSP;REMOÇÃO DE ÁRVORE;RUA FERNANDO BELMONTE;;JD OLIMPIA;CELSO DO CARMO JATENE;;-23.58897;-46.7481
379;IND;;380;2003;;PMSP;OPERAÇÃO TAPA-BURACO;RUA JOSÉ NEVES;;VILA SÃO PAULO;GILBERTO TANOS NATALINI;;-23.65972;-46.6775
380;IND;;381;2003;;PMSP;OPERAÇÃO TAPA-BURACO;RUA JOSÉ NEVES;;VILA SÃO PAULO;GILBERTO TANOS NATALINI;;-23.65972;-46.6775
381;IND;;382;2003;;PMSP;OPERAÇÃO TAPA-BURACO;RUA JOSÉ NEVES;;VILA SÃO PAULO;GILBERTO TANOS NATALINI;;-23.65972;-46.6775
382;IND;;383;2003;;PMSP;OPERAÇÃO TAPA-BURACO;RUA JOSÉ NEVES;;VILA SÃO PAULO;GILBERTO TANOS NATALINI;;-23.65972;-46.6775
383;IND;;384;2003;;PMSP;OPERAÇÃO TAPA-BURACO;RUA JOSÉ NEVES;;VILA SÃO PAULO;GILBERTO TANOS NATALINI;;-23.65972;-46.6775
384;IND;;385;2003;;PMSP;OPERAÇÃO TAPA-BURACO;RUA JOSÉ NEVES;;VILA SÃO PAULO;GILBERTO TANOS NATALINI;;-23.65972;-46.6775
385;IND;;386;2003;;PMSP;OPERAÇÃO TAPA-BURACO;RUA JOSÉ NEVES;;VILA SÃO PAULO;GILBERTO TANOS NATALINI;;-23.65972;-46.6775
386;IND;;387;2003;;PMSP;OPERAÇÃO TAPA-BURACO;RUA JOSÉ NEVES;;VILA SÃO PAULO;GILBERTO TANOS NATALINI;;-23.65972;-46.6775
387;IND;;388;2003;;PMSP;OPERAÇÃO TAPA-BURACO;RUA JOSÉ NEVES;;VILA SÃO PAULO;GILBERTO TANOS NATALINI;;-23.65972;-46.6775
388;IND;;389;2003;;PMSP;OPERAÇÃO TAPA-BURACO;RUA ALFREDO MARCONDES MACHADO;;VILA BANCÁRIA MUNHOZ;GILBERTO TANOS NATALINI;;-23.48596;-46.68424
389;IND;;390;2003;;PMSP;REVISÃO E TROCA DE LUMINÁRIAS.;RUA RIBEIRINHOS;;VILA RICA;JOSE VIVIANI FERRAZ;;-23.47143;-46.67244
390;IND;;391;2003;;PMSP;IMPLANTAÇÃO DE BRAÇOS LONGOS E TROCA DE LUMINÁRIAS;RUA ITUPAVA;;VILA RICA;JOSE VIVIANI FERRAZ;;-23.4699199;-46.67125
391;IND;;392;2003;;PMSP;TROCA DE LUMINÁRIAS.;RUA CONDESSA AMÁLIA MATARAZZO;;JD PERI;JOSE VIVIANI FERRAZ;;-23.4569;-46.65302
392;IND;;393;2003;;PMSP;IMPLANTAÇÃO DE DOIS POSTES.;PÇA GERALDO PEIXOTO DE SOUZA;;JD PERI;JOSE VIVIANI FERRAZ;;;
393;IND;;394;2003;;PMSP;IMPLANTAÇÃO DE BRAÇO COM LUMINÁRIA.;RUA ANGELINA UGOLINE;;VILA PICCININ;JOSE VIVIANI FERRAZ;;-23.49299;-46.709
394;IND;;395;2003;;PMSP;TROCA DE LUMINÁRIA.;RUA MARCELINO DE CAMARGO;;VILA CAROLINA;JOSE VIVIANI FERRAZ;;-23.49803;-46.68208
395;IND;;396;2003;;PMSP;IMPLANTAÇÃO DE UM BRAÇO LONGO COM LUMINÁRIA.;RUA DALVO MATOS DEDECCA C/RUA RIBEIRÃO DAS ALMAS;;VILA PALMEIRA;JOSE VIVIANI FERRAZ;;-23.49527;-46.6871
396;IND;;397;2003;;PMSP;IMPLANTAÇÃO DE UM BRAÇO LONGO COM LUMINÁRIA.;RUA CAPITÃO MOR LOPES DE CARVALHO;;GUAIANASES;JOSE VIVIANI FERRAZ;;-23.53715;-46.39715
397;IND;;398;2003;;PMSP;IMPLANTAÇÃO DE BRAÇOS LONGOS COM LUMINÁRIAS.;RUA SANTA RITA DO ITUETO;;JD SANTA CRUZ;JOSE VIVIANI FERRAZ;;-23.45816;-46.66653
398;IND;;399;2003;;PMSP;TROCA DE BRAÇOS E TROCA DE LUMINÁRIAS.;RUA SANTANA DE CATAGUASES;;JD SANTA CRUZ;JOSE VIVIANI FERRAZ;;-23.45737;-46.66522
399;IND;;400;2003;;PMSP;RECONSTRUÇÃO DA PONTE DO CÓRREGO DOS MENINOS.;RUA BARBINOS;;SÃO CAETANO DO SUL;JOSE VIVIANI FERRAZ;;-23.62198;-46.58218
400;IND;;401;2003;;PMSP;REMOÇÃO DE LOMBADA EM VIA PÚBLICA QUE ESTÁ CAUSANDO RACHADURAS NO ASFALTO, NAS CALÇADAS E NAS RESID.;RUA AÇAI;;ARICANDUVA;ANTONIO LAURO CAMPANHA;;;
401;IND;;402;2003;;PMSP;PODA DE ÁRVORES;RUA PROF PASCHOAL PACHI;;VILA DEODORO;DALTON SILVANO DO AMARAL;;-23.57754;-46.6201
402;IND;;403;2003;;PMSP;REGULARIZAÇÃO DE ILUMINAÇÃO PÚBLICA;AV AMARO ALVES DO ROSÁRIO;;PARELHEIROS -;CARLOS ALBERTO GIANNAZI;;-23.81195;-46.73194
403;IND;;404;2003;;PMSP;REGULARIZAÇÃO DE ILUMINAÇÃO PÚBLICA;ESTRADA DO SERVIDÃO, ANTIGA CONTINUAÇÃO DA AV.AMARO ALVES DO ROSÁRIO.;;PARELHEIROS;CARLOS ALBERTO GIANNAZI;;-23.81278;-46.7206199
404;IND;;405;2003;;PMSP.........................;CONSERTO DE TELHADO DE PONTO DE ÔNIBUS EM FRENTE ÀESCOLA ESTADUAL PROF.MARIA DE LOURDES SINISGALLI;AV AMARO ALVES DO ROSÁRIO, 03;;JD.ITAIM - PARELHEIROS;CARLOS ALBERTO GIANNAZI;;-23.81195;-46.73194
405;IND;;406;2003;;PMSP;VIABILIZAR COLOCAÇÃO DE BANDER EM TODAS AS RUAS DOCONDOMÍNIO RESIDENCIAL VILELA;CONDOMÍNIO RESIDENCIAL VILELA;;DISTRITO PARELHEIROS;CARLOS ALBERTO GIANNAZI;;-23.52595;-46.58308
406;IND;;407;2003;;PMSP;SOLICITA INFORMAÇÕES SOBRE O ANDAMENTO DO PROCESSODE ASFALTAMENTO DAS RUAS DO CONDOMÍNIO RES.VILELA.;CONDOMÍNIO RESIDENCIAL VILELA -;;DISTRITO PARELHEIROS;CARLOS ALBERTO GIANNAZI;;-23.77013;-46.71798
407;IND;;408;2003;;PMSP;COBERTURA DE QUADRA DA EMEF PROF.ANTONIO DE SAMPAIO DOIZIA.;PRAÇA TITO PACHECO, 07;;JD.MIRIAM - CIDADE ADEMAR;CARLOS ALBERTO GIANNAZI;;-23.68167;-46.64184
408;IND;;409;2003;;PMSP;FISCALIZAR O DETERMINADO NO DECRETO 37.952 - ART.5.PAR.1. -ITEM II - DETERMINA PINTURA/SIN.CAÇAMBAS.;SECRETARIA DE SERVIÇOS E OBRAS - LIMPURB;;;ANTONIO CARLOS RODRIGUES;;;
409;IND;;410;2003;;CET;SOLICITA A INSTALAÇÃO DE SEMÁFORO.;RUA COMANDANTE TAYLOR COM A RUA FREIRE BRAYNER;;SACOMÃ;CARLOS ALBERTO PLETZ NEDER;;;
410;IND;;411;2003;;SUBPREFEITO DE VILA MARIA/VILA GUILHERME;SOLICITA A LIMPEZA DE BUEIRO.;RUA MARGARINOS TORRES COM A RUA AMAMBAÍ - PRÓXIMOÀ 19A.DP;;VILA MARIA;CARLOS ALBERTO PLETZ NEDER;;-23.51237;-46.59407
411;IND;;412;2003;;PMSP;FALTA DE ILUMINAÇÃO EM VIA PÚBLICA.;VIA PÚBLICA, PRÓX.A RUA PARATIBA E RUA ITAPIPINAEM FRENTE AO NÚMERO 279;;JARDIM NORDESTE;ANTONIO LAURO CAMPANHA;;;
412;IND;;413;2003;;PMSP;LIMPEZA E REPINTURA DAS PAREDES.;TÚNEL NOVE DE JULHO;;BELA VISTA (SP/SE);ANTONIO DE PAIVA MONTEIRO Fo.;;-23.58855;-46.48843
413;IND;;414;2003;;PMSP;SERVIÇOS DA OPERAÇÃO TAPA BURACO.;RUA SOLDADO CANDIDO DA LUZ PAIVA, ESQUINA COM A RUA_SOLDADO ELEAQUIM BATISTA - .......;;JARDIM SAPOPEMBA;CARLOS ALBERTO Q. BEZERRA JR.;;;
414;IND;;415;2003;;PMSP...........;FISCALIZAÇÃO RIGOROSA EM UM BAR E LANCHONETE DEVIDO AO BARULHO, PROSTITUIÇÃO, PONTO DROGAS HOR.FUNC.;RUA APARECIDA DE SÃO MANUEL ESQ.COM A AV RIO DASPEDRAS ALTURA DO N.2771;;VILA NOVA YORK;CARLOS ALBERTO Q. BEZERRA JR.;;;
415;IND;;416;2003;;PMSP;SOLICITA FISCALIZAÇÃO DO PSIU.;RUA BARÃO DE ABIAÍ;;CHÁCARA BELENZINHO;CARLOS ALBERTO Q. BEZERRA JR.;;-23.57382;-46.54573
416;IND;;417;2003;;PMSP;REMOÇÃO DE ÁRVORE.;RUA MARGARIDA 64 - BARRA FUNDA;;BARRA FUNDA;CARLOS ALBERTO Q. BEZERRA JR.;;-23.53138;-46.66004
417;IND;;418;2003;;PMSP;FISCALIZAÇÃO NO IMÓVEL SITO À_AV.FRANCISCO FALCONIN.1452, POIS EXISTEM 04 CAIXAS D´ÁGUA DESTAMPADAS.;AV FRANCISCO FALCONI, 1452 - .............;;JARDIM AVELINO;CARLOS ALBERTO Q. BEZERRA JR.;;-23.59313;-46.56378
418;IND;;419;2003;;PMSP;CANALIZAÇÃO DO CÓRREGO RIO VERDE.;VILA ZATTI - PIRITUBA;;PIRITUBA;CARLOS ALBERTO Q. BEZERRA JR.;;-23.46625;-46.7235
419;IND;;420;2003;;PMSP;TAPA-BURACO.;ESTRADA D.JOÃO NERY, ALTURA DO N.3030;;VILA LOURDES;GILBERTO TANOS NATALINI;;-23.52131;-46.3997
420;IND;;421;2003;;PMSP;LIMPEZA DE BUEIRO.;RUA ALVARES SOARES, ESQ. COM AV.DOS BANDEIRANTES,ALTURA DO N.3510.;;VILA OLIMPIA;GILBERTO TANOS NATALINI;;;
421;IND;;422;2003;;PMSP;LIMPEZA E DESOBSTRUÇÃO DE GALERIA.;RUA ALVARES SOARES, ESQ.C/AV.DOS BANDEIRANTES, ALTURA N.3510.;;VILA OLÍMPIA;GILBERTO TANOS NATALINI;;;
422;IND;;423;2003;;PMSP;TAPA-BURACO.;RUA MURIAÉ, ALTURA DO N.284.;;IPIRANGA;GILBERTO TANOS NATALINI;;-23.60458;-46.61175
423;IND;;424;2003;;PMSP.....;PROLIFERAÇÃO DE DENGUE.;RUA PROF.VITOR MIGUEL ROMANO, 33;;SAPOPEMBA;GILBERTO TANOS NATALINI;;-23.5965;-46.52326
424;IND;;425;2003;;PMSP;TAPA-BURACO.;ESTRADA D.JOÃO NERY, ALTURA DO N.2678.;;VILA LOURDES;GILBERTO TANOS NATALINI;;-23.5165;-46.40269
425;IND;;426;2003;;PMSP;TAPA-BURACO.;ESTRADA D.JOÃO NERY, ALTURA DO N.2980.;;VILA LOURDES;GILBERTO TANOS NATALINI;;-23.51856;-46.4008899
426;IND;;427;2003;;PMSP...........;TAPA-BURACO.;ESTRADA D.JOÃO NERY, ALTURA DO N.2911;;VILA LOURDES;GILBERTO TANOS NATALINI;;-23.51812;-46.40128
427;IND;;428;2003;;PMSP;LIGAÇÃO DE LUZ.;CABINE POLICIAL NA RUA VIGÁRIO ALBERNAZ, ESQ.COMAVENIDA RICARDO JAFET.;;VILA GUMERCINDO;GILBERTO TANOS NATALINI;;-23.6052;-46.6235799
428;IND;;429;2003;;PMSP;TAPA-BURACO.;ESTRADA D.JOÃO NERY, ALTURA DO N.2152;;VILA LOURDES;GILBERTO TANOS NATALINI;;-23.51211;-46.40193
429;IND;;430;2003;;PMSP;TAPA-BURACO.;ESTRADA D. JOÃO NERY, ALTURA DO N.2502;;VILA LOURDES;GILBERTO TANOS NATALINI;;-23.5146105;-46.4027115
430;IND;;431;2003;;PMSP;TAPA-BURACO.;ESTRADA D.JOÃO NERY, ALTURA DO N.2610;;VILA LOURDES;GILBERTO TANOS NATALINI;;-23.51596;-46.4029
431;IND;;432;2003;;PMSP;TAPA-BURACO.;ESTRADA D.JOÃO NERY, ALTURA DO N2618;;VILA LOURDES;GILBERTO TANOS NATALINI;;-23.52946;-46.39681
432;IND;;433;2003;;PMSP;TAPA-BURACO.;ESTRADA D. JOÃO NERY, ALTURA DO N.2670.;;VILA LOURDES;GILBERTO TANOS NATALINI;;-23.51647;-46.40271
433;IND;;434;2003;;PMSP;TAPA-BURACO.;RUA LAVAPÉS, ALTURA DO N.350 AO N.879;;CAMBUCI;GILBERTO TANOS NATALINI;;-23.56192;-46.62409
434;IND;;435;2003;;PMSP;TAPA-BURACO.;RUA PEDROSO,ALTURA DO N.533;;BELA VISTA;GILBERTO TANOS NATALINI;;-23.56178;-46.64405
435;IND;;436;2003;;PMSP;TAPA-BURACO.;AV.LINS DE VASCONCELOS,ALTURA DO N.3036;;VILA MARIANA;GILBERTO TANOS NATALINI;;-23.58804;-46.63017
436;IND;;437;2003;;PMSP;TAPA-BURACO.;RUA MATEUS DE PERUGGIA, ALTURA DO N.485;;JARDIM VAZ DE LIMA;GILBERTO TANOS NATALINI;;-23.6695651;-46.7592444
437;IND;;438;2003;;PMSP;TAPA-BURACO.;RUA MATEUS DE PERUGGIA, ALTURA DO N.463;;JARDIM VAZ DE LIMA;GILBERTO TANOS NATALINI;;-23.6695592;-46.7592401
438;IND;;439;2003;;PMSP;TAPA-BURACO.;RUA MATEUS DE PERUGGIA, ALTURA DO N,509;;JARDIM VAZ DE LIMA;GILBERTO TANOS NATALINI;;-23.66985;-46.75944
439;IND;;440;2003;;PMSP;TAPA-BURACO.;RUA MATEUS DE PERUGGIA, ALTURA DO N.591;;JARDIM VAZ DE LIMA;GILBERTO TANOS NATALINI;;-23.6695936;-46.7592653
440;IND;;441;2003;;PMSP;TAPA-BURACO..;RUA MATEUS DE PERUGGIA, ALTURA DO N.549;;JARDIM VAZ DE LIMA;GILBERTO TANOS NATALINI;;-23.6695823;-46.7592571
441;IND;;442;2003;;PMSP;TAPA-BURACO.;RUA MARILIA, ALTURA DOS N.55 E 57;;VILA LOURDES;GILBERTO TANOS NATALINI;;-23.53029;-46.39803
442;IND;;443;2003;;PMSP.................................;TAPA-BURACO.;ESTRADA D.JOÃO NERY, ALTURA DO N.3073;;VILA LOURDES;GILBERTO TANOS NATALINI;;-23.51931;-46.40022
443;IND;;444;2003;;PMSP;TAPA-BURACO.;ESTRADA D.JOÃO NERY, ALTURA DO N.3035;;VILA LOURDES;GILBERTO TANOS NATALINI;;-23.51912;-46.40039
444;IND;;445;2003;;PMSP;TAPA-BURACO.;ESTRADA D.JOÃO NERY, ALTURA DO N.3121;;VILA LOURDES;GILBERTO TANOS NATALINI;;-23.51962;-46.40002
445;IND;;446;2003;;PMSP;TAPA-BURACO.;ESTRADA D.JOÃO NERY, ALTURA DO N3186;;VILA LOURDES;GILBERTO TANOS NATALINI;;-23.52946;-46.39681
446;IND;;447;2003;;PMSP;TAPA-BURACO.;ESTRADA D.JOÃO NERY, ALTURA DO N.3241.;;VILA LOURDES;GILBERTO TANOS NATALINI;;-23.52062;-46.39975
447;IND;;448;2003;;PMSP;TAPA-BURACO.;ESTRADA D.JOÃO NERY, ALTURA DO N.4154;;VILA LOURDES;GILBERTO TANOS NATALINI;;-23.5277299;-46.39717
448;IND;;449;2003;;PMSP;TAPA-BURACO.;ESTRADA D.JOÃO NERY, ALTURA DO N.3269;;VILA LOURDES;GILBERTO TANOS NATALINI;;-23.52087;-46.39973
449;IND;;450;2003;;PMSP;TAPA-BURACO.;RUA SÃO CARLOS DO PINHAL, ALTURA DO N.508;;BELA VISTA;GILBERTO TANOS NATALINI;;-23.56341;-46.65199
450;IND;;451;2003;;PMSP;TAPA-BURACO.;RUA DR ANTONIO BENTO, ALTURA DO N,241;;SANTO AMARO;GILBERTO TANOS NATALINI;;-23.64546;-46.70226
451;IND;;452;2003;;PMSP;TAPA-BURACO..;RUA AFONSO SANCHES, ALTURA DO N.27;;JARDIM SÃO BENTO NOVO;GILBERTO TANOS NATALINI;;-23.6813984;-46.7860516
452;IND;;453;2003;;PMSP;TAPA-BURACO;RUA MARANHÃO, ALTURA DO N.320;;HIGIENÓPOLIS;GILBERTO TANOS NATALINI;;-23.54496;-46.6559
453;IND;;454;2003;;PMSP;TAPA-BURACO.;RUA RIO DE JANEIRO, ALTURA DO N.151;;HIGIENÓPOLIS;GILBERTO TANOS NATALINI;;-23.54172;-46.66236
454;IND;;455;2003;;PMSP;TAPA-BURACO;RUA AFONSO SANCHES, ALTURA DO N.387;;JARDIM SÃO BENTO NOVO;GILBERTO TANOS NATALINI;;-23.6828079;-46.7890637
455;IND;;456;2003;;PMSP;TAPA-BURACO.;RUA MÃE MARIA, ALTURA DO N.14;;JARDIM SÃO BENTO NOVO;GILBERTO TANOS NATALINI;;-23.68345;-46.78255
456;IND;;457;2003;;PMSP;TAPA-BURACO.;RUA MÃE MARIA, ALTURA DO N.44;;JARDIM SÃO BENTO NOVO;GILBERTO TANOS NATALINI;;-23.68335;-46.78237
457;IND;;458;2003;;PMSP;TAPA-BURACO.;RUA MASSIMO AZEGLIO, ALTURA DO N.8;;JARDIM VAZ DE LIMA;GILBERTO TANOS NATALINI;;-23.67209;-46.75967
458;IND;;459;2003;;PMSP;TAPA-BURACO.;RUA MASSIMO AZEGLIO, ALTURA DO N.7;;JARDIM VAZ DE LIMA;GILBERTO TANOS NATALINI;;-23.67157;-46.75942
459;IND;;460;2003;;PMSP;TAPA-BURACO.;RUA AFONSO SANCHES, ALTURA DO N.98;;JARDIM SÃO BENTO NOVO;GILBERTO TANOS NATALINI;;-23.6816248;-46.7865171
460;IND;;461;2003;;PMSP;OPERAÇÃO TAPA-BURACO.;RUA AFONSO SANCHES;;JD S BENTO NOVO;GILBERTO TANOS NATALINI;PARTIDO VERDE;-23.68208;-46.78749
461;IND;;462;2003;;PMSP;OPERAÇÃO TAPA-BURACO.;RUA RAIMON DE OLIVEIRA;;JD VAZ DE LIMA;GILBERTO TANOS NATALINI;PARTIDO VERDE;-23.67163;-46.75867
462;IND;;463;2003;;PMSP;OPERAÇÃO TAPA-BURCO.;RUA RAIMON DE MIRAVAL;;JD VAZ DE LIMA;GILBERTO TANOS NATALINI;PARTIDO VERDE;-23.67163;-46.75867
463;IND;;464;2003;;PMSP;OPERAÇÃO TAPA-BURACO;RUA CAPITÃO JOHN CORDEIRO E SILVEIRA;;JD LUSO;GILBERTO TANOS NATALINI;PARTIDO VERDE;-23.68928;-46.63675
464;IND;;465;2003;;PMSP;OPERAÇÃO TAPA-BURACO.;RUA DELFIN DO PRATA;;JD SANTA TERESINHA;GILBERTO TANOS NATALINI;;-23.69785;-46.6426
465;IND;;466;2003;;PMSP;OPERAÇÃO TAPA-BURACO;RUA DELFIN DO PRATA;;JD SANTA TERESINHA;GILBERTO TANOS NATALINI;;-23.69785;-46.6426
466;IND;;467;2003;;PMSP;OPERAÇÃO TAPA-BURACO;RUA DOS APIARIS;;JD SANTA TERESINHA;GILBERTO TANOS NATALINI;;-23.69711;-46.64548
467;IND;;468;2003;;PMSP;OPERAÇÃO TAPA-BURACO;RUA DOS APIARIS;;JD SANTA TERESINHA;GILBERTO TANOS NATALINI;;-23.69711;-46.64548
468;IND;;469;2003;;PMSP;OPERAÇÃO TAPA-BURACO;RUA CAPITÃO JOHN CORDEIRO E SILVEIRA;;JD LUSO;GILBERTO TANOS NATALINI;;-23.68928;-46.63675
469;IND;;470;2003;;SUBPREFEITO DO DISTRITO DE PIRITUBA;LIMPEZA DA PRAÇA;PÇA ALCEBIADES DE SOUZA;;VILA JARAGUA;GILBERTO TANOS NATALINI;;-23.42629;-46.71179
470;IND;;471;2003;;PMSP;REFORMA DA CALÇADA;PÇA ALCEBIADES DE SOUZA;;VILA JARAGUA;GILBERTO TANOS NATALINI;;-23.42629;-46.71179
471;IND;;472;2003;;PMSP;IMPLEMENTAÇÃO DE LOMBADA ELETRÔNICA.;RUA CHUBEI TAKAGASHI - FAZENDA CAGUAÇU;;ITAQUERA;WILLIAM BOSS WOO;;-23.57019;-46.42438
472;IND;;473;2003;;PMSP;INDICA A ABERTURA DA RUA CAIENA, ALTURA DO N 105,PARA A RUA CONDESSA AMÁLIA MATARAZZO.;;;;JOSE VIVIANI FERRAZ;;;
473;IND;;474;2003;;PMSP;IMPLANTAÇÃO DE TRES POSTES.;RUA SEVERINO NUNES DA COSTA;;JD ELISA MARIA;JOSE VIVIANI FERRAZ;;-23.45755;-46.68241
474;IND;;475;2003;;PMSP;INDICA A NECESSIDADE DE IMPLANTAR BRAÇOS COM LUMINÁRIAS NOS POSTES SPU/1/3/5/37013, NA RUA AGUIAR;;;;JOSE VIVIANI FERRAZ;;;
475;IND;;476;2003;;PMSP;IMPLANTAÇÃO DE POSTES COM LUMINÁRIAS.;"PRAÇA ESTRELA D""OESTE";;VILA ITABERABA;JOSE VIVIANI FERRAZ;;-23.4844;-46.69385
476;IND;;477;2003;;PMSP;IMPLANTAÇÃO DE ROTATÓRIA.;CONFLUÊNCIA DAS RUAS DR EDSON DE MELO;;VILA MARIA;WADIH JORGE MUTRAN;;-23.513;-46.58278
477;IND;;478;2003;;PMSP;INSTALAÇÃO DE SEMÁFORO;RUA MARCOS ARRUDA;;;ANTONIO LAURO CAMPANHA;;-23.5365;-46.60239
478;IND;;479;2003;;PMSP;TELEFONE PÚBLICO;AV WALDEMAR CARLOS PEREIRA;;PENHA;ANTONIO LAURO CAMPANHA;;-23.54674;-46.51169
479;IND;;480;2003;;PMSP;SOLICITA REDE DE ENERGIA ELÉTRICA E PAVIMENTAÇÃONA REGIÃO DA ADUTORA DO RIO CLARO.;;;SÃO MATEUS;JOAO ANTONIO DA SILVA FILHO;PARTIDO DOS TRABALHADORES;;
480;IND;;481;2003;;SUBPREFEITO DE SANTO AMARO;LIMPEZA E CONSERVAÇÃO DA PRAÇA;RUA ALBERTO GEBARA;;SANTO AMARO;GILBERTO TANOS NATALINI;PARTIDO VERDE;-23.64023;-46.68918
481;IND;;482;2003;;ILUME;ILUMINAÇÃO DA PRAÇA;RUA ALBERTO GEBARA;;SANTO AMARO;GILBERTO TANOS NATALINI;PARTIDO VERDE;-23.64023;-46.68918
482;IND;;483;2003;;SABESP;LIGAÇÃO DE ÁGUA.;CABINE POLICIAL LOCALIZADA NA RUA VIGÁRIO ALBERNAZ;;VILA GUMERCINDO;GILBERTO TANOS NATALINI;PARTIDO VERDE;-23.6052;-46.6235799
483;IND;;484;2003;;SUBPREEITURA DE ITAIM PAULISTA;LIMPEZA E REM0ÇÃO DE ENTULHO E REURBANIZAÇÃO DA PRAÇA.;PÇA JAGUAMITANGA;;VILA CURUÇÁ;ANNA MARIA MARTINS SOARES;PARTIDO COMUNISTA DO BRASIL;-23.5036;-46.42324
484;IND;;485;2003;;PMSP;TROCA DE LUMINÁRIAS.;RUA AMARO DOMINGUES E VIELA QUE SAI DA MESMA RUA.;;VILA ITABERABA;JOSE VIVIANI FERRAZ;PARTIDO LIBERAL;-23.48614;-46.69319
485;IND;;486;2003;;PMSP;IMPLANTAÇÃO DE ILUMINAÇÃO PÚBLICA;RUA ELVIRA BONIFÁCIA DO MONTE;;PARQUE GUARANI;JOSE VIVIANI FERRAZ;PARTIDO LIBERAL;-23.51574;-46.45659
486;IND;;487;2003;;PMSP;IMPLANTAÇÃO DE UMA ESCOLA PARA CRIANÇAS EXCEPCIO -NAIS.;RUA HULÉTIA;;VILA SÃO JOÃO BATISTA;JOSE VIVIANI FERRAZ;PARTIDO LIBERAL;-23.4631;-46.69981
487;IND;;488;2003;;PMSP;IMPLANTAÇÃO DE DUAS LUMINÁRIAS.;VIELA QUE SAI DA RUA DR CARMELO D'AGOSTINHO;;JD RINCÃO;JOSE VIVIANI FERRAZ;PARTIDO LIBERAL;-23.4363199;-46.72599
488;IND;;489;2003;;PMSP;TROCA DE BRAÇOS E LUMINÁRIAS.;RUA ITAMBÉ DO MATO DENTRO;;JD GUARANI;JOSE VIVIANI FERRAZ;PARTIDO LIBERAL;-23.45921;-46.69107
489;IND;;490;2003;;PMSP;TROCA DE BRAÇO E LUMINÁRIA.;RUA JESUINO ANTONIO BATISTA;;JD GUARANI;JOSE VIVIANI FERRAZ;PARTIDO LIBERAL;-23.45827;-46.693
490;IND;;491;2003;;PMSP;TROCA DE BRAÇOS E LUMINÁRIAS.;RUA JOSÉ DA CUNHA PONTE;;PARQUE BELÉM;JOSE VIVIANI FERRAZ;PARTIDO LIBERAL;-23.46129;-46.68522
491;IND;;492;2003;;PMSP;IMPLANTAÇÃO DE UMA LUMINÁRIA.;RUA JOÃO CORDEIRO;;JD MONJOLO;JOSE VIVIANI FERRAZ;PARTIDO LIBERAL;-23.49469;-46.70139
492;IND;;493;2003;;PMSP;IMPLANTAÇÃO DE POSTE COM LUMINÁRIA.;PÇA CEL SATURNINO DE CARVALHO;;JD BELÉM;JOSE VIVIANI FERRAZ;PARTIDO LIBERAL;-23.48941;-46.47703
493;IND;;494;2003;;PMSP;IMPLANTAÇÃO DE POSTES COM LUMINÁRIAS.;RUA DO INVERNO;;JD GUARANI;JOSE VIVIANI FERRAZ;PARTIDO LIBERAL;-23.4632599;-46.68919
494;IND;;495;2003;;PMSP;IMPLANTAÇÃO DE TRES POSTES COM LUMINÁRIAS.;RUA MANUEL NASCIMENTO PINTO;;JD GUARANI;JOSE VIVIANI FERRAZ;PARTIDO LIBERAL;-23.46069;-46.69114
495;IND;;496;2003;;PMSP;TROCA DE LUMINÁRIAS.;PÇA DR HELVÉCIO GOMES DE OLIVEIRA.;;JD PERI;JOSE VIVIANI FERRAZ;PARTIDO LIBERAL;-23.46481;-46.65475
496;IND;;497;2003;;PMSP;IMPLANTAÇÃO DE BRAÇOS COM LUMINÁRIAS.;VIELA UM (RUA ALBERTO BURITI);;JD CAROMBÉ;JOSE VIVIANI FERRAZ;PARTIDO LIBERAL;-23.4579298;-46.7028403
497;IND;;498;2003;;PMSP;IMPLANTAÇÃO DE POSTE COM LUMINÁRIA.;PÇSA CACIQUE DOBLE;;VILA SÃO JOÃO BATISTA;JOSE VIVIANI FERRAZ;PARTIDO LIBERAL;-23.66919;-46.67383
498;IND;;499;2003;;PMSP;AMPLIAÇÃO DAS ESCOLAS EMEI PROF CELSO FERREIRA DASILVA E EMEI FRANCISCO MANUEL DA SILVA.;;;CAPELA DO SOCORRO;CARLOS ALBERTO GIANNAZI;PARTIDO DOS TRABALHADORES;;
499;IND;;500;2003;;PMSP;URBANIZAÇÃO DA PRAÇA NASCENTES DO RIO BONITO.;ENTRE AS RUAS JOSÉ RIBEIRO JUNQUEIRA, TIBÚRCIO RO-DRIGUES E PAULO FALCÃO;;JD COLONIAL;CARLOS ALBERTO GIANNAZI;PARTIDO DOS TRABALHADORES;-23.72684;-46.68842
500;IND;;501;2003;;PMSP;SOLICITA AVERIGUAR IRREGULARIDADES ENTRE AS AVENIDDAS MANUEL ALVES SOARES E JOSÉ RIBEIRO JUNQUEIRA.;;;JD COLONIAL;CARLOS ALBERTO GIANNAZI;PARTIDO DOS TRABALHADORES;;
501;IND;;502;2003;;SUBPREFEITA DO DISTRITO DA SÉ;PODA DE ÁRVORES E CORTE DE MATO.;AV ÁGUA ESPRAIADA;;CIDADE MONÇÕES;GILBERTO TANOS NATALINI;PARTIDO VERDE;-23.23175;-46.58112
502;IND;;503;2003;;SUBPREFEITO DO DISTRITO ARICANDUVA/VILA;PODA DE ÁRVORE;RUA ANABIJU;;JD ARICANDUVA;GILBERTO TANOS NATALINI;PARTIDO VERDE;-23.5699;-46.50595
503;IND;;504;2003;;PMSP;OPERAÇÃO TAPA-BURACO;RUA ABILIO CESAR;;JD SORAIA;GILBERTO TANOS NATALINI;PARTIDO VERDE;-23.67983;-46.77655
504;IND;;505;2003;;PMSP;OPERAÇÃO TAPA-BURACO;RUA EMERICO LOBO DE MESQUITA;;JD VAZ DE LIMA;GILBERTO TANOS NATALINI;PARTIDO VERDE;-23.67098;-46.759
505;IND;;506;2003;;PMSP;OPERAÇÃO TAPA-BURACO;RUA EMERICO LOBO DE MESQUITA;;JD VAZ DE LIMA;GILBERTO TANOS NATALINI;PARTIDO VERDE;-23.67098;-46.759
506;IND;;507;2003;;PMSP;OPERAÇÃO TAPA-BURACO.;RUA EMERICO LOBO DE MESQUITA;;JD VAZ DE LIMA;GILBERTO TANOS NATALINI;PARTIDO VERDE;-23.67098;-46.759
507;IND;;508;2003;;PMSP;OPERAÇÃO TAPA-BURACO;RUA EMERICO LOBO DE MESQUITA;;JD VAZ D ELIMA;GILBERTO TANOS NATALINI;PARTIDO VERDE;-23.67098;-46.759
508;IND;;509;2003;;PMSP;OPERAÇÃO TAPA-BURACO;RUA ANÁLIA DOLACIO ALBINO;;MARQUE MARIA;GILBERTO TANOS NATALINI;PARTIDO VERDE;-23.66184;-46.76227
509;IND;;510;2003;;PMSP;OPERAÇÃO TAPA-BURACO;RUA ABILIO CESAR;;JD SORAIA;GILBERTO TANOS NATALINI;PARTIDO VERDE;-23.67983;-46.77655
510;IND;;511;2003;;PMSP;OPERAÇÃO TAPA-BURACO;RUA TARIRA;;JD SÃO BENTO NOVO;GILBERTO TANOS NATALINI;PARTIDO VERDE;-23.54535;-46.63469
511;IND;;512;2003;;PMSP;OPERAÇÃO TAPA-BURACO.;RUA TARIRA;;JD SÃO BENTO;GILBERTO TANOS NATALINI;PARTIDO VERDE;-23.54535;-46.63469
512;IND;;513;2003;;SUBPREFEITA DO DISTRITO DE M'BOI MIRIM;DESBARRANCAMENTO;RUA LUIZ RICARDI;;JD DIONÍZIO;GILBERTO TANOS NATALINI;PARTIDO VERDE;-23.68491;-46.7662199
513;IND;;514;2003;;PMSP;OPERAÇÃO TAPA-BURACO.;RUA LUCA MARENZIO;;JD DE LIMA;GILBERTO TANOS NATALINI;PARTIDO VERDE;-23.67137;-46.75866
514;IND;;515;2003;;PMSP;OPERAÇÃO TAPA-BURACO;RUA ABILIO CESAR;;JD SORAIA;GILBERTO TANOS NATALINI;PARTIDO VERDE;-23.67983;-46.77655
515;IND;;516;2003;;PMSP;OPERAÇÃO TAPA-BURACO;RUA ABILIO CESAR;;JD SORAIA;GILBERTO TANOS NATALINI;PARTIDO VERDE;-23.67983;-46.77655
516;IND;;517;2003;;PMSP;OPERAÇÃO TAPA-BURACO.;RUA OTUSCO;;JD IPE;GILBERTO TANOS NATALINI;PARTIDO VERDE;-23.59377;-46.65182
517;IND;;518;2003;;PMSP;OPERAÇÃO TAPA-BURACO;RUA ALMIRANTE LUIZ PENIDO BURNIER;;JD SANDRA;GILBERTO TANOS NATALINI;PARTIDO VERDE;-23.66475;-46.7674
518;IND;;519;2003;;PMSP;OPERAÇÃO TAPA-BURACO;RUA ALMIRANTE LUIZ PENIDO BURNIER;;JD SANDRA;GILBERTO TANOS NATALINI;PARTIDO VERDE;-23.66475;-46.7674
519;IND;;520;2003;;PMSP;OPERAÇÃO TAPA-BURACO;RUA EMERICO LOBO DE MESQUITA;;JD VAZ DE LIMA;GILBERTO TANOS NATALINI;PARTIDO VERDE;-23.67098;-46.759
520;IND;;521;2003;;PMSP;OPERAÇÃO TAPA-BURACO;RUA TARIRA;;JD SÃO BENTO NOVO;GILBERTO TANOS NATALINI;PARTIDO VERDE;-23.54535;-46.63469
521;IND;;522;2003;;PMSP;OPERAÇÃO TAPA-BURACO;RUA TARIRA;;JD SÃO BENTO NOVO;GILBERTO TANOS NATALINI;PARTIDO VERDE;-23.54535;-46.63469
522;IND;;523;2003;;PMSP;OPERAÇÃO TAPA-BURACO;RUA TARIRA;;JD SÃO BENTO NOVO;GILBERTO TANOS NATALINI;PARTIDO VERDE;-23.54535;-46.63469
523;IND;;524;2003;;PMSP;OPERAÇÃO TAPA-BURACO;RUA TARIRA;;JD SÃO BENTO NOVO;GILBERTO TANOS NATALINI;PARTIDO VERDE;-23.54535;-46.63469
524;IND;;525;2003;;PMSP;OPERAÇÃO TAPA-BURACO;RUA TARIRA;;JD SÃO BENTO NOVO;GILBERTO TANOS NATALINI;PARTIDO VERDE;-23.54535;-46.63469
525;IND;;526;2003;;PMSP;OPERAÇÃO TAPA-BURACO;AV CARLOS LACERDA;;PIRAJUSSARA;GILBERTO TANOS NATALINI;PARTIDO VERDE;-23.63599;-46.77713
526;IND;;527;2003;;PMSP;OPERAÇÃO TAPA-BURACO;RUA EMERICO LOBO DE MESQUITA;;JD VAZ DE LIMA;GILBERTO TANOS NATALINI;PARTIDO VERDE;-23.67098;-46.759
527;IND;;528;2003;;PMSP;OPERAÇÃO TAPA-BURACO;RUA JOAQUIM EUGÊNIO DE LIMA;;JD PAULISTA;GILBERTO TANOS NATALINI;PARTIDO VERDE;-23.56824;-46.65291
528;IND;;529;2003;;SECR MUNICIPAL DE INFRA-ESTRUTURA URBANA;CONCLUSÃO DA CANALIZAÇÃO DO CÓRREGO DA FAZENDA;;;JD IPANEMA;CARLOS ALBERTO PLETZ NEDER;PARTIDO DOS TRABALHADORES;;
529;IND;;530;2003;;SEC MUN DE INFRA ESTRUTURA URBANA;SOLICITA INFORMAÇÕES SOBRE ASFALTO;RUA ABETO, RUA BELARMINO, RUA QUINTA DE SELVARESRUA SAUL BORGES CARNEIRO E RUA MARIO FONTE.;;JD IPANEMA;CARLOS ALBERTO PLETZ NEDER;PARTIDO DOS TRABALHADORES;;
530;IND;;531;2003;;SECR MUN DE FINANÇAS;CANALIZAÇÃO DE CÓRREGO;;;JD IPANEMA;CARLOS ALBERTO PLETZ NEDER;PARTIDO DOS TRABALHADORES;;
531;IND;;532;2003;;SPTRANS;SOLICITA RETORNO DA LINHA DE ÔNIBUS 2050 - VILAUNIÃO.;;;VILA UNIÃO;CARLOS ALBERTO PLETZ NEDER;PARTIDO DOS TRABALHADORES;;
532;IND;;533;2003;;SECR MUN DE TRANSPORTES;SOLICITA RETORNO DA LINHA DE ÔNIBUS 2050 VILA UNIÃO/PARQUE D PEDRO II.;;;VILA UNIÃO;CARLOS ALBERTO PLETZ NEDER;PARTIDO DOS TRABALHADORES;;
533;IND;;534;2003;;GOVERNADOR DO ESTADO DE S PAULO;RECONSTRUIR A PONTE SOBRE O RIBEIRÃO DOS MENINOS.;CONFLUÊNCIA DA RUA SÃO PAULO C/AV GUIDO ALIBERTI;;SÃO CAETANO;DALTON SILVANO DO AMARAL;DEMOCRATAS;;
534;IND;;535;2003;;SUBPREFEITURA DA SÉ;LIMPEZA DE TERRENO.;RUAS ARARAS;;;DALTON SILVANO DO AMARAL;DEMOCRATAS;-23.85689;-46.70478
535;IND;;536;2003;;CET;INSTALAÇÃO DE SEMÁFORO PARA A TRAVESSIA DE PEDES -TRES.;RUA BASILIO DA CUNHA;;VILA DEODORO;DALTON SILVANO DO AMARAL;DEMOCRATAS;-23.57688;-46.62018
536;IND;;537;2003;;PSIU;APURAÇÃO DE VERIFICAR BARULHO EXCESSIVO ÀS SEXTASFEIRAS NO BAR NO ENDEREÇO ACIMA.;RUA JOSÉ BENTO;;CAMBUCI;DALTON SILVANO DO AMARAL;DEMOCRATAS;-23.5504399;-46.6809299
537;IND;;538;2003;;PMSP;LIMPEZA E DESRATIZAÇÃO DE TERRENO.;RUA BOLIVAR BOAVENTURA;;JD PENHA;JOSE ROGERIO SHKAIR FARHAT;PARTIDO TRABALHISTA BRASILEIRO;-23.50562;-46.5007499
538;IND;;539;2003;;PMSP;LIMPEZA, DESRATIZAÇÃO, ILUMINAÇÃO PÚBLICA E CONSTRTRUÇÃO DE CALÇADA.;RUA CEL ERNESTO DUPRAT;;SÃO MATEUS;JOSE ROGERIO SHKAIR FARHAT;PARTIDO TRABALHISTA BRASILEIRO;-23.59273;-46.48765
539;IND;;540;2003;;PMSP;LIMPEZA DE BOCAS-DE-LOBO.;RUA CADIRIRI;;PARQUE DA MOOCA;ANTONIO LAURO CAMPANHA;PARTIDO SOCIALISTA BRASILEIRO;-23.57113;-46.59821
540;IND;;541;2003;;PMSP;LINHA TELEFÔNICA;ESTRADA D JOÃO NERI, 3.046;;GUAIANAZES;ANTONIO LAURO CAMPANHA;PARTIDO SOCIALISTA BRASILEIRO;-23.5202505;-46.3997813
541;IND;;542;2003;;PMSP;SOLICITA AGILIZE O PROCESSO DE EMISSÃO DE CARTEIRAS DE PASSE ESCOLAR.;;;;CLAUDIO GOMES FONSECA;PARTIDO POPULAR SOCIALISTA;;
542;IND;;543;2003;;PMSP;SOLICITA INSPEÇÃO TÉCNICA EM TODO SISTEMA DE PÁRA-RAIOS INSTALADOS NO MUNICÍPIO.;;;;CLAUDIO GOMES FONSECA;PARTIDO POPULAR SOCIALISTA;;
543;IND;;544;2003;;PMSP;SOLICITA A IMPLANTAÇÃO DE BRAÇOS COM LUMINÁRIAS.;RUA CAMACÃ;;JD PAULISTANO.;JOSE VIVIANI FERRAZ;PARTIDO LIBERAL;-23.6224;-46.41612
544;IND;;545;2003;;SECR MUN DE IMPLEMENTAÇÃO DAS SUBPREFEIT;MUDANÇA DE SEMÁFORO, MUDANÇA DE MÃO DE DIREÇÃO,CO-BERTURA EM PONTO DE ÔNIBUS NA AV SANTA INÊS, CORTE;AV SANTA INÊS;;MANDAQUI;JOSE RICARDO FRANCO MONTORO;PARTIDO DA SOCIAL DEMOCRACIA BRASILEIRA;-23.47542;-46.63151
545;IND;;546;2003;;PMSP;INDICA A NECESSIDADE DE SER CONSIDERADO LEGAL A SITUAÇÃO DOS ATAS ORA EM EXERCÍCIO EM CRECHE.;;;;CARLOS ALBERTO GIANNAZI;PARTIDO DOS TRABALHADORES;;
546;IND;;547;2003;;PMSP;TOMAR PROVIDÊNCIAS NECESSÁRIAS REFERENTES A PRESENÇA EXCESSIVA DE POMBOS NA EEPSG.;AV MANOEL ALVES SOARES, 659;;PQ COLONIAL;CARLOS ALBERTO GIANNAZI;PARTIDO DOS TRABALHADORES;-23.7215;-46.68893
547;IND;;548;2003;;PMSP;VIABILIZAR INSTALAÇÃO DE SEMÁFORO OU REDUTOR DE VELOCIDADE EM FRENTE À EMEF PAULO SETÚBAL.;AV LOURENÇO CABREIRO;;JD ANA LÚCIA;CARLOS ALBERTO GIANNAZI;PARTIDO DOS TRABALHADORES;-23.71582;-46.6903999
548;IND;;549;2003;;PMSP;PODAR ÁRVORE.;CALÇADA DA RUA JOSÉ RIBEIRO JUNQUEIRA;;JD COLONIAL;CARLOS ALBERTO GIANNAZI;PARTIDO DOS TRABALHADORES;-23.72684;-46.68842
549;IND;;550;2003;;PMSP;RECOLOCAÇÃO DE PARALELEPÍPEDOS.;RUA DIOGO DE OLIVEIRA NEVES;;JD NIZIA;CARLOS ALBERTO GIANNAZI;PARTIDO DOS TRABALHADORES;-23.72145;-46.69229
550;IND;;551;2003;;PMSP;PODAR ÁRVORE.;RUA GUARUVA;;CIDADE DUTRA;CARLOS ALBERTO GIANNAZI;PARTIDO DOS TRABALHADORES;-23.71144;-46.7004
551;IND;;552;2003;;PMSP;CONSTRUÇÃO DE PRAÇA COM ÁREA DE LASER.;RUA XAVIER DE OLIVEIRA;;VILA NHOCUNÉ;ANTONIO LAURO CAMPANHA;PARTIDO SOCIALISTA BRASILEIRO;-23.5492199;-46.49621
552;IND;;553;2003;;PMSP;CANALIZAÇÃO DE CÓRREGO.;RUA XAVIER DE OLIVEIRA;;VILA NHOCUNÉ;ANTONIO LAURO CAMPANHA;PARTIDO SOCIALISTA BRASILEIRO;-23.5492199;-46.49621
553;IND;;554;2003;;PMSP;RETORNO DO PONTO DE ÔNIBUS PARA A PRAÇA JOÃO MENDES, LINHA JD JAPÃP 2165.;;;;ANTONIO LAURO CAMPANHA;PARTIDO SOCIALISTA BRASILEIRO;;
554;IND;;555;2003;;PMSP;VAGA EM ESCOLA MUNICIPAL DE ENSINO FUNDAMENTAL PA-RA ALUNA LUCIANA NUNES DO PRADO.;SECRETARIA MUNICIPAL DE EDUCAÇÃO;;VILA BENEDITO;ANTONIO LAURO CAMPANHA;PARTIDO SOCIALISTA BRASILEIRO;;
555;IND;;556;2003;;PMSP;PAVIMENTAÇÃO;TRAVESSA MANUEL FARIA CORREIA;;VILA MONUMENTO;ANTONIO GOULART DOS REIS;PARTIDO SOCIAL DEMOCRATICO;-23.57621;-46.60976
556;IND;;557;2003;;PMSP;PAVIMENTAÇÃO;RUA MARGUERITA ALVAREZ;;AMERICANÓPOLIS;ANTONIO GOULART DOS REIS;PARTIDO SOCIAL DEMOCRATICO;-23.6797;-46.64324
557;IND;;558;2003;;PMSP;CANALIZAÇÃO DE CÓRREGO;RUA ASSUR;;CAMPO GRANDE;ANTONIO GOULART DOS REIS;PARTIDO SOCIAL DEMOCRATICO;-23.5663899;-46.5741299
558;IND;;559;2003;;PMSP;CANALIZAÇÃO DE CÓRREGO;AV JOSÉ HIGINO NEVES;;JD SÃO PAULO;ANTONIO GOULART DOS REIS;PARTIDO SOCIAL DEMOCRATICO;-23.56439;-46.40407
559;IND;;560;2003;;PMSP;PAVIMENTAÇÃO;RUA BRASILIA GOTTZFRITZ;;INTERLAGOS;ANTONIO GOULART DOS REIS;PARTIDO SOCIAL DEMOCRATICO;-23.58306;-46.6723
560;IND;;561;2003;;PMSP;CANALIZAÇÃO;RUA ARAÇAZAL;;VILA SILVIA;ANTONIO GOULART DOS REIS;PARTIDO SOCIAL DEMOCRATICO;-23.48899;-46.5033
561;IND;;562;2003;;PMSP;CANALIZAÇÃO;RUA ANGELO PRADO;;PQ AMÉRICA;ANTONIO GOULART DOS REIS;PARTIDO SOCIAL DEMOCRATICO;-23.73495;-46.6933999
562;IND;;563;2003;;SUBPREFEITO DA CIDADE TIRADENTES;PAVIMENTAÇÃO URBANA COMUNITÁRIA - PPUC.;ESTRADA MANOEL OLIVEIRA RAMOS;;JD PÉROLA III;JOSE OLIMPIO SILVEIRA MORAES;PARTIDO PROGRESSISTA;-23.71467;-46.6880499
563;IND;;564;2003;;PMSP;REFAZER ASFALTO.;ESTRADA DE ITAPECERICA;;VALO VELHO;JOSE OLIMPIO SILVEIRA MORAES;PARTIDO PROGRESSISTA;-23.65992;-46.77617
564;IND;;565;2003;;PMSP;TROCA DE BRAÇO DE LUMINÁRIA.;RUA MANUEL JUSTINO QUINTÃO;;VILA PALMEIRA;JOSE VIVIANI FERRAZ;PARTIDO LIBERAL;-23.49298;-46.68842
565;IND;;566;2003;;PMSP;IMPLANTAÇÃO DE UM POSTE COM LUMINÁRIA.;PRAÇA TRES DE OUTUBRO;;CONJ RESIDENCIAL NOVO PAC;JOSE VIVIANI FERRAZ;PARTIDO LIBERAL;;
566;IND;;567;2003;;PMSP;TROCA D ELUMINÁRIAS NOS POSTES SPU/22/14/E/13 E SPU/21/14/E/14.;RUA CARLOS MALHEIROS DIAS;;VILA PIRITUBA;JOSE VIVIANI FERRAZ;PARTIDO LIBERAL;-23.48374;-46.74553
567;IND;;568;2003;;PMSP;TROCA DE LUMINÁRIAS.;RUA VALQUIRIA;;VILA N CACHOEIRINHA;JOSE VIVIANI FERRAZ;PARTIDO LIBERAL;-23.47566;-46.66674
568;IND;;569;2003;;PMSP;IMPLANTAÇÃO DE BRAÇO LONGO COM LUMINÁRIA.;RUA SANTA AUTA;;VILA PALMEIRA;JOSE VIVIANI FERRAZ;PARTIDO LIBERAL;-23.4957299;-46.68672
569;IND;;570;2003;;PMSP;IMPLANTAÇÃO DE BRAÇO COM LUMINÁRIA.;RUA IBIRIARAS;;JD VISTA ALEGRE;JOSE VIVIANI FERRAZ;PARTIDO LIBERAL;-23.4508699;-46.68846
570;IND;;571;2003;;PMSP;IMPLANTAÇÃO DE DOIS POSTES COM LUMINÁRIAS.;RUA DOS MORGADOS;;VILA ZULMIRA;JOSE VIVIANI FERRAZ;PARTIDO LIBERAL;-23.4786;-46.69532
571;IND;;572;2003;;PMSP;IMPLANTAÇÃO DE UM POSTE COM LUMINÁRIA.;RUA CAMPO DAS LARANJEIRAS;;JD RINCÃO;JOSE VIVIANI FERRAZ;PARTIDO LIBERAL;-23.43605;-46.72912
572;IND;;573;2003;;PMSP;IMPLANTAÇÃO DE POSTES COM LUMINÁRIAS.;RUA CARMINO MONTUORI;;JARAGUÁ;JOSE VIVIANI FERRAZ;PARTIDO LIBERAL;;
573;IND;;574;2003;;PMSP;IMPLANTAÇÃO DE LUMINÁRIAS.;RUA DR FAUSTO RIBEIRO FILHO;;ANHANGUERA;JOSE VIVIANI FERRAZ;PARTIDO LIBERAL;-23.43737;-46.77526
574;IND;;575;2003;;PMSP;COMPLEMENTAÇÃO DE PAVIMENTAÇÃO;RUA RICARDINA VIEIRA COELHO;;ALTO DA RIVIERA;JOSE VIVIANI FERRAZ;PARTIDO LIBERAL;-23.70151;-46.76833
575;IND;;576;2003;;PMSP;IMPLANTAÇÃO DE POSTES COM LUMINÁRIAS.;RUA ARISTEU;;PERUS;JOSE VIVIANI FERRAZ;PARTIDO LIBERAL;-23.4068;-46.74427
576;IND;;577;2003;;PMSP;IMPLANTAÇÃO DE POSTES.;RUA DO FAROL;;BRASILÂNDIA;JOSE VIVIANI FERRAZ;PARTIDO LIBERAL;;
577;IND;;578;2003;;PMSP;IMPLANTAÇÃO DE LUMINÁRIA.;RUA DO FAROL;;BRASILÂNDIA;JOSE VIVIANI FERRAZ;PARTIDO LIBERAL;;
578;IND;;579;2003;;PMSP;TROCA DE LUMINÁRIA NO POSTE.;RUA DOIS CÓRREGOS;;VILA CLÁUDIA/MOOCA;JOSE VIVIANI FERRAZ;PARTIDO LIBERAL;-23.55933;-46.584
579;IND;;580;2003;;PMSP;COMPLEMENTAÇÃO DE PAVIMENTAÇÃO.;RUA NATALINA ROQUE STEFANI;;JD N S DA CONSOLATA;JOSE VIVIANI FERRAZ;PARTIDO LIBERAL;-23.47577;-46.65621
580;IND;;581;2003;;PMSP;PAVIMENTAÇÃO ASFÁLTICA.;RUA ENG DARIO MACHADO DE CAMPOS;;VILA SERRALHEIRO;JOSE VIVIANI FERRAZ;PARTIDO LIBERAL;-23.4719;-46.6967
581;IND;;582;2003;;PMSP;PAVIMENTAÇÃO ASFÁLTICA.;RUA VALENTIM PERES;;JD PAULISTANO;JOSE VIVIANI FERRAZ;PARTIDO LIBERAL;-23.45786;-46.71398
582;IND;;583;2003;;PMSP;IMPLANTAÇÃO DE DOIS POSTES COM LUMINÁRIAS.;R MANUEL MARQUES DE SOUZA;;JD GUARANI;JOSE VIVIANI FERRAZ;;-23.45764;-46.69196
583;IND;;584;2003;;PMSP;IMPLANTAÇÃO DE LUMINÁRIA.;RUA SERVIDÃO;;PERUS;JOSE VIVIANI FERRAZ;;-23.52117;-46.57985
584;IND;;585;2003;;PMSP;IMPLANTAÇÃO DE BRAÇOS COM LUMINÁRIAS.;RUA JERÔNIMO SOUTO MAIOR;;BRASILÂNDIA;JOSE VIVIANI FERRAZ;;-23.47423;-46.69301
585;IND;;586;2003;;PMSP;IMPLSNTAÇÃO DE UM POSTE COM LUMINÁRIA.;RUA JERÔNIMO SOUTO MAIOR;;BRASILÂNDIA;JOSE VIVIANI FERRAZ;;-23.47423;-46.69301
586;IND;;587;2003;;PMSP;IMPLANTAÇÃO DE QUATRO POSTES.;RUA DA BONANÇA;;VILA SÃO VICENTE;JOSE VIVIANI FERRAZ;;-23.4949;-46.6942499
587;IND;;588;2003;;PMSP;IMPLANTAÇÃO DE TRES POSTES.;RUA LUIS CAETANO MARTINS;;VILA PALMEIRA;JOSE VIVIANI FERRAZ;;-23.49031;-46.68673
588;IND;;589;2003;;PMSP;REVISÃO E TROCA DE LUMINÁRIAS.;RUA LUIS CAETANO MARTINS;;VILA MARILU;JOSE VIVIANI FERRAZ;;-23.49031;-46.68673
589;IND;;590;2003;;PMSP;CONSTRUÇÃO DE PRAÇA EM TERRENOS BALDIOS EM FRENTEA EMEF CEL ARY GOMES.;RUA BENEDITO ALESSIO, 184.;;JD ANDARAÍ;WADIH JORGE MUTRAN;;-23.52626;-46.58227
590;IND;;591;2003;;PMSP;PODA DE ÁRVORE;PÇA PRESIDENTE JÃNIO DA SILVA QUADROS;;VILA MARIA;WADIH JORGE MUTRAN;;-23.50007;-46.5820099
591;IND;;592;2003;;PMSP;CAPINAÇÃO.;PÇA PRESIDENTE JÃNIO DA SILVA QUADROS;;VILA MARIA;WADIH JORGE MUTRAN;;-23.50007;-46.5820099
592;IND;;593;2003;;SUBPREFEITURA DA PENHA;CORTE DE MATO.;RUA ANDRÉA FELICIANI;;COHAB PE MANUEL DA NÓBREG;DALTON SILVANO DO AMARAL;;-23.5488;-46.48068
593;IND;;594;2003;;PSIU;APURAÇÃO PARA VERIFICAR BARULHO EXCESSIVO EM 3 BARES.;RUA ALBUQUERQUE LINS;;SANTA CECILIA;DALTON SILVANO DO AMARAL;;-23.537;-46.65735
594;IND;;595;2003;;PMSP;PAVIMENTAÇÃO;RUA MIRANDA DE SOUZA;;JAÇANÃ/TREMEMBÉ;JOAO ANTONIO DA SILVA FILHO;;-23.45339;-46.60708
595;IND;;596;2003;;SECR MUN DE INFRA-ESTRUTURA URBANA;SOLICITA RETOMADA DA CANALIZAÇÃO DO CÓRREGO DOS BRBRANCOS.;RUA COIOXIM;;JD PIRACEMA;CARLOS ALBERTO PLETZ NEDER;;-23.49053;-46.6372
596;IND;;597;2003;;PMSP;PLACAS PERMITIDO EMBARQUE E DESEMBARQUE DE PASSA -GEIROS NO LOCAL.;RUA EUCLIDES PACHECO;;TATUAPÉ;CARLOS ALBERTO Q. BEZERRA JR.;;-23.5482;-46.56837
597;IND;;598;2003;;PMSP;IMPLANTAÇÃO DE LUMINÁRIAS.;RUA RUBI;;JD ALTO DE TAIPAS;JOSE VIVIANI FERRAZ;;-23.43547;-46.71012
598;IND;;599;2003;;PMSP;IMPLANTAÇÃO DE LUMINÁRIAS.;RUA FAVEIRA PEQUENA;;JD HELOISA;JOSE VIVIANI FERRAZ;;-23.50843;-46.41528
599;IND;;600;2003;;PMSP;TROCA DE LUMINÁRIAS.;RUA CACHOEIRA DOS INDIOS;;VILA CISPER;JOSE VIVIANI FERRAZ;;-23.49584;-46.49545
600;IND;;601;2003;;PMSP;REVISÃO E TROCA DE LUMINÁRIAS.;RUA DR INÁCIO PROENÇA DE GOUVEIA;;PARQUE PERUCHE;JOSE VIVIANI FERRAZ;;-23.4964799;-46.65314
601;IND;;602;2003;;PMSP;TROCA DOS BRAÇOS POR MAIS LONGOS E DAS LUMINÁRIAS.;RUA SÃO JOSÉ DOS CORDEIROS;;VILA CISPER;JOSE VIVIANI FERRAZ;;-23.49456;-46.49368
602;IND;;603;2003;;PMSP;TROCA DE BRAÇOS POR MAIS LONGOS E DAS LUMINÁRIASPOR MAIS POTENTES.;RUA AGNELO RODRIGUES DE MELLO;;VILA CISPER;JOSE VIVIANI FERRAZ;;-23.49465;-46.49169
603;IND;;604;2003;;TELESP;SOLICITA TELEFONE COMUNITÁRIO INTERNO NA SEDE DA ASSOCIAÇÃO CENTRAL E COMUNITÁRIA DO CONJ HAB BRASIL;;;;GILBERTO TANOS NATALINI;;;
604;IND;;605;2003;;SUBPREFEITURA DE VILA MARIANA;PODA DE ÁRVORE;RUA APENINOS;;PARAÍSO;DALTON SILVANO DO AMARAL;;-23.57065;-46.63892
605;IND;;606;2003;;SUBPREFEITURA DO IPIRANGA;LIMPEZA DE PÇA E PODA DE TODAS AS ÁRVORES.;PÇA EMILIO GOMES TEIXEIRA;;IPIRANGA;DALTON SILVANO DO AMARAL;;;
606;IND;;607;2003;;PMSP;SEGURANÇA PÚBLICA PARA A EMEF PROF MARIA RITA DE CÁSSIA PINHEIRO SIMÕES BRAGA.;RUA ANTONIO PEREIRA DE SÁ;;JD AURÉLIO;CARLOS ALBERTO GIANNAZI;;-23.65876;-46.7821799
607;IND;;608;2003;;PMSP;INSTALAÇÃO DE BRINQUEDOS E CONSTRUÇÃO DE PISTA DESKATE EM PÇA PÚBLICA.;PÇA JOÃO BEIÇOLA;;JD ANA LÚCIA;CARLOS ALBERTO GIANNAZI;;;
608;IND;;609;2003;;PMSP;VIABILIZAR A CONSTRUÇÃO DE MURO OU INSTALAÇÃO DE GGRADE DE SEGURANÇA EM PONTE.;EM FRENTE A PRAÇA JOÃO BEIÇOLA;;JD PRIMAVERA;CARLOS ALBERTO GIANNAZI;;;
609;IND;;610;2003;;SUBPREFEITO DE SANTO AMARO;ASFALTO.;RUA DES BANDEIRA DE MELO;;SANTO AMARO;WILLIAM BOSS WOO;;-23.65388;-46.70481
610;IND;;611;2003;;SUBPREFEITO DE SANTO AMARO;ASFALTO;RUA SENADOR FLAQUER;;SANTO AMARO;WILLIAM BOSS WOO;;-23.65521;-46.7051299
611;IND;;612;2003;;SUBPREFEITO DE SANTO AMARO;ASFALTO;RUA SENADOR DANTAS;;SANTO AMARO;WILLIAM BOSS WOO;;-23.65496;-46.70615
612;IND;;613;2003;;SUBPREFEITO DE SANTO AMARO;ASFALTO;RUA ROBERTO ALVES CARVALHO;;SANTO AMARO;WILLIAM BOSS WOO;;-23.64968;-46.6991
613;IND;;614;2003;;PMSP;INDICA A NOMEAÇÃO DOS ALUNOS APROVADOS DA GUARDACIVIL METROPOLITANA PARA O CARGO DE 2o INSPETOR.;;;;WILLIAM BOSS WOO;;;
614;IND;;615;2003;;SMS;INDICA A MELHORIA DO ATENDIMENTO DE SAÚDE, COM RELAÇÃO AO AGENDAMENTO DE CONSULTAS POR MÉDICO, POR;;;;CLAUDIO GOMES FONSECA;;;
615;IND;;616;2003;;SPTRANS;AMPLIE A OFERTA DE ATENDIMENTO ÀS PESSOAS COM DI -FICULDADE DE MOBILIDADE ATRAVÉS DO PROGRAMA ATENDE;;;;CLAUDIO GOMES FONSECA;;;
616;IND;;617;2003;;PMSP;TRANSFERÊNCIA DE PONTOS FINAIS DE COLETIVOS DA VIAÇÃO TÂNIA.;RUA TENENTE PAULO ALVES, RUA TAQUARICHIM E AV SAN-TO ALBANO.;;;ANTONIO LAURO CAMPANHA;;;
617;IND;;618;2003;;PMSP;RECOLHIMENTO DE LIXO.;ESQUINA ENTRE A RUA VALE DAS CANAS E RUA AÇOR.;;JD MANACÁ;CARLOS ALBERTO GIANNAZI;;-23.74431;-46.70057
618;IND;;619;2003;;GOVERNADOR DO ESTADO DE SÃO PAULO;REFORMA GERAL DO ANFITEATRO DA E.E. N S DA PENHA.;RUA PADRE BENEDITO DE CAMARGO, 762;;PENHA;ANTONIO DE PAIVA MONTEIRO Fo.;;-23.5209598;-46.5480298
619;IND;;620;2003;;SUBPREFEITO DA CIDADE DUTRA;PAVIMENTAÇÃO;RUA SALVADOR DALI;;PEDREIRA;ALTAMIRO CELSO CARDOSO;;-23.69341;-46.67026
620;IND;;621;2003;;SUBPREFEITO DE ITAIM PAULISTA;CONSTRUIR BOCAS-DE-LOBO.;RUA LUIZ BONADIEZ;;VILA CURUÇÁ;ALTAMIRO CELSO CARDOSO;;-23.51088;-46.43007
621;IND;;622;2003;;PMSP;CONSTRUÇÃO DE ESCADÃO.;TRAVESSA CRISTÓVÃO MARTINEZ;;VILA MEDEIROS;WADIH JORGE MUTRAN;;-23.49602;-46.58918
622;IND;;623;2003;;PMSP;RETIRAR O PONTO DE ÔNIBUS LOCALIZADO EM FRENTE DONo 637 DA RUA COTOXÓ, VILA POMPÉIA.;;;;JOSE LAURINDO DE OLIVEIRA;;;
623;IND;;624;2003;;SUBPREFEITA DO DISTRITO DE M'BOI MIRIM;CONSERTO DE TAMPA DE FERRO DA GALERIA PLUVIAL.;ESTRADA M'BOI MIRIM;;JD DAS FLORES;GILBERTO TANOS NATALINI;;-23.66994;-46.73713
624;IND;;625;2003;;PMSP;IMPLANTAÇÃO DE PLACA TRÂNSITO PROIBIDO DE CAMINHÕES.;RUA ITAGUARA;;CIDADE VARGAS;CELSO DO CARMO JATENE;;-23.65048;-46.6350399
625;IND;;626;2003;;PMSP;OPERAÇÃO TAPA-BURACO;RUA JAGUARIBE;;VILA BUARQUE;GILBERTO TANOS NATALINI;;-23.54166;-46.65142
626;IND;;627;2003;;PMSP;CANALIZAÇÃO DO CÓRREGO;AV DR SEBASTIÃO DO CÓRREGO;;RIO BONITO;ANTONIO GOULART DOS REIS;;;
627;IND;;628;2003;;PMSP;PAVIMENTAÇÃO;RUA HENRIQUE CÉSAR MUZZIO;;JD SHANGRILÁ;ANTONIO GOULART DOS REIS;;-23.75917;-46.66735
628;IND;;629;2003;;PMSP;CANALIZAÇÃO DO CÓRREGO;RUA FRANCISCO DE ARRUDA;;RIO BONITO;ANTONIO GOULART DOS REIS;;-23.71808;-46.69742
629;IND;;630;2003;;PMSP;PAVIMENTAÇÃO;RUA HUMBERTO DE QUEIROS;;JD BÉLGICA;ANTONIO GOULART DOS REIS;;-23.6596;-46.69945
630;IND;;631;2003;;PMSP;INVASÃO DE ÁREA MUNICIPAL.;RUA ITAÚVA;;VILA VERA;MARCOS ANTONIO ZERBINI;;-23.6248;-46.60505
631;IND;;632;2003;;PMSP;DESAPROPRIAÇÃO DE ÁREA PARA IMPLANTAÇÃO DE UNIDADEEDUCACIONAL - DECRETO DE UTILIDADE PÚBLICA 37.903;;;SACOMÃ;MARCOS ANTONIO ZERBINI;;;
632;IND;;633;2003;;PMSP;DESRARTIZAÇÃO EM TODA EXTENSÃO DA RUA.;RUA ADELZA GOMES VITORINO;;VILA RICA;CARLOS ALBERTO Q. BEZERRA JR.;;-23.58161;-46.52121
633;IND;;634;2003;;PMSP;IMPLANTAÇÃO DE UM PARADA DE ÔNIBUS COM COBERTURA NO LOCAL.;AV ITACIRA, 2025;;INDIANÓPOLIS;CARLOS ALBERTO Q. BEZERRA JR.;;-23.61989;-46.64641
634;IND;;635;2003;;SUBPREFEITO DO DISTRITO DA PENHA;CONSERVAÇÃO DE PRAÇA;PÇA JOSE ENIO DA SILVEIRA;;JD SANTA MARIA;GILBERTO TANOS NATALINI;;-23.58729;-46.43809
635;IND;;636;2003;;SUBPREFEITO DO DISTRITO DE PIRITUBA;OPERAÇÃO TAPA-BURACO;RUA ANTONIO FELIX PACHECO;;PIRITUBA;GILBERTO TANOS NATALINI;;-23.49416;-46.74359
636;IND;;637;2003;;SUBPREFEITURA DO DISTRITO DE CAPELA DO;OPERAÇÃO TAPA-BURACO;RUA DOS PROTESTANTES;;GRAJAÚ;GILBERTO TANOS NATALINI;;-23.53593;-46.63747
637;IND;;638;2003;;SECRETARIA MUNICIPAL DAS SUBPREFEITURAS;DESBARRANCAMENTO;RUA LUIZ RICARDI;;JD DIONÍSIO;GILBERTO TANOS NATALINI;;-23.68491;-46.7662199
638;IND;;639;2003;;SUBPREFEITO DO DISTRITO DE CAPELA DO SO;OPERAÇÃO TAPA-BURACO;RUA DOS PROTESTANTES;;GRAJAÚ;GILBERTO TANOS NATALINI;;-23.53593;-46.63747
639;IND;;640;2003;;SUBPREFEITO DO DISTRITO DE CAPELA DO SO;OPERAÇÃO TAPA-BURACO;RUA DOS PROTESTANTES;;GRAJAÚ;GILBERTO TANOS NATALINI;;-23.53593;-46.63747
640;IND;;641;2003;;MINISTÉRIO DA SAÚDE;INDICA A NECESSIDADE DE INSTALAÇÃO DE FARMÁCIAS POPULARES NOS CONJUNTOS HABITACIONAIS: SANTA ETELVIN;;;CIDADE TIRADENTES;DALTON SILVANO DO AMARAL;;;
641;IND;;642;2003;;AGÊNCIA NACIONAL DE PETRÓLEO;SOLICITA LAUDO CONCLUSIVO SOBRE A QUALIDADE DO COMBUSTÍVEL CONHECIDO COMO GASOLINA.;;;;DALTON SILVANO DO AMARAL;;;
642;IND;;643;2003;;SUBPREFEITURA DE ARICANDUVA;CANALIZAÇÃO DO CÓRREGO RAPADURA.;RUA GOMES BARRETO;;CARRÃO;DALTON SILVANO DO AMARAL;;-23.54596;-46.54074
643;IND;;644;2003;;AGÊNCIA NACIONAL DE PETRÓLEO;SOLICITA LAUDO CONCLUSIVO SOBRE A QUALIDADE DO COMBUSTÍVEL CONHECIDO COMO GASOLINA ADITIVADA.;;;;DALTON SILVANO DO AMARAL;;;
644;IND;;645;2003;;IPREM;SOLICITA LAUDO PERICIAL CONCLUSIVO SOBRE A QUALIDADE E OS COMPONENTES DO COMBUSTÍVEL CONHECIDO COMO;;;;DALTON SILVANO DO AMARAL;;;
645;IND;;646;2003;;SUBPREFEITURA DO IPIRANGA;REBAIXAMENTO DA COPA DA ÁRVORE.;RUA BAMBORÉ;;VILA D PEDRO I;DALTON SILVANO DO AMARAL;;-23.59883;-46.61292
646;IND;;647;2003;;IPT;SOLICITA ESTUDOS PARA IDENTIFICAR OS ADITIVOS OUCOMPONENTES QUE AS DISTRIBUIDORAS DE COMBUSTÍVEIS;;;;DALTON SILVANO DO AMARAL;;;
647;IND;;648;2003;;SUBPREFEITURA DO IPIRANGA;LIMPEZA DE TERRENO;RUA ENG PRUDENTE;;VILA MONUMENTO;DALTON SILVANO DO AMARAL;;-23.57288;-46.61452
648;IND;;649;2003;;PMSP;IMPLANTAÇÃO DE BRAÇOS COM LUMINÁRIAS.;RUA ANTONIO DIAS DA SILVA;;VILA AMÉLIA;JOSE VIVIANI FERRAZ;;-23.4669;-46.64989
649;IND;;650;2003;;PMSP;IMPLANTAÇÃO DE BRAÇOS COM LUMINÁRIAS NOS DOIS POS-TES EXISTENTES.;RUA CELESTINA MOREIRA;;VILA MORRO GRANDE;JOSE VIVIANI FERRAZ;;-23.46886;-46.7028899
650;IND;;651;2003;;PMSP;REGULARIZAÇÃO;RUA MÁRIO FORTE;;JARDIM ARISI;CELSO DO CARMO JATENE;;-23.56113;-46.51041
651;IND;;652;2003;;PMSP;PAVIMENTAÇÃO;RUA MÁRIO FORTE;;JD ARISI;CELSO DO CARMO JATENE;;-23.56113;-46.51041
652;IND;;653;2003;;PMSP;OBSTRUÇÃO DE BURACOS;RUA RIBEIRO LISBOA;;JD MORUMBI;CELSO DO CARMO JATENE;;-23.61731;-46.71467
653;IND;;654;2003;;PMSP;OBSTRUÇÃO DE BURACO;RUA DAVID PIMENTEL;;JD MORUMBI;CELSO DO CARMO JATENE;;-23.6169;-46.71719
654;IND;;655;2003;;PMSP;PODA DE ÁRVORES E CAPINAGEM.;RUA PARQUE BUTUI, S/N;;TATUAPÉ;CELSO DO CARMO JATENE;;;
655;IND;;656;2003;;PMSP;PAVIMENTAÇÃO;ESTR DO QUINZE;;EMBURA;EDIVALDO ALVES ESTIMA;;;
656;IND;;657;2003;;PMSP;PAVIMENTAÇÃO;RUA AMANCIO PEDRO DE OLIVEIRA;;VILA MARACANÃ;EDIVALDO ALVES ESTIMA;;-23.64939;-46.74745
657;IND;;658;2003;;SUBPREFEITURA DE VILA MARIANA;OPERAÇÃO TAPA-BURACOS.;RUA NICOLAU DE SOUZA QUEIROZ;;ACLIMAÇÃO;DALTON SILVANO DO AMARAL;;;
658;IND;;659;2003;;SECRETARIA MUNICIPAL DA EDUCAÇÃO;SOLICITA INFORMAÇÕES SOBRE O CUSTO, POR PERÍODO LETIVO, DE CADA ALUNO MATRICULADO NA REDE MUNICIPAL;;;;ANTONIO GOULART DOS REIS;;;
659;IND;;660;2003;;PMSP;CANALIZAÇÃO DE CÓREGO NO CONJUNTO HABITACIONALÁGUIA DE HAIA.;;;;ALTAMIRO CELSO CARDOSO;;;
660;IND;;661;2003;;PSIU;EXCESSO DE RUÍDO EM ESTABELECIMENTO COMERCIAL NOVA BOIART COM. DE CARNES.;RUA TENENTE CEL CARLOS SILVA ARAUJO;;SANTO AMARO;GILBERTO TANOS NATALINI;;-23.64887;-46.70806
661;IND;;662;2003;;SECRETÁRIO MUNICIPAL DAS SUBPREFEITURAS;OPERAÇÃO TAPA-BURACO.;RUA JOSÉ MARTINS COELHO;;VILA EMIR;GILBERTO TANOS NATALINI;;-23.69277;-46.68003
662;IND;;663;2003;;PMSP;TROCA DE BRAÇOS POR MAIS LONGOS.;RUA AFONSO LOPES VIEIRA;;VILA DIONISIA;JOSE VIVIANI FERRAZ;;-23.46515;-46.66596
663;IND;;664;2003;;PMSP;TROCA DE BRAÇOS POR MAIS LONGOS.;RUA JORDÃO CARMAGO DE OLIVEIRA;;JARDIM JOAMAR;JOSE VIVIANI FERRAZ;;-23.45016;-46.5894
664;IND;;665;2003;;PMSP;TROCA DE BRAÇOS POR MAIS LONGOS.;RUA ELVIRA;;PARQUE RODRIGUES ALVES;JOSE VIVIANI FERRAZ;;-23.61921;-46.4685
665;IND;;666;2003;;PMSP;TROCA DE LUMINÁRIAS.;RUA PEDRO POMAR E RUA CARLOSLAMARCA;;JD ELISA MARIA;JOSE VIVIANI FERRAZ;;-23.46127;-46.6804
666;IND;;667;2003;;PMSP;TROCA DE LUMINÁRIAS.;RUA PADRE JOÃO BEIL;;JD SANTO ELIAS;JOSE VIVIANI FERRAZ;;-23.50565;-46.74893
667;IND;;668;2003;;PMSP;TROCA DE LUMINÁRIAS.;RUA ENG DOLABELA;;JD BANDEIRANTES;JOSE VIVIANI FERRAZ;;-23.45666;-46.73511
668;IND;;669;2003;;PMSP;REVISÃO E TROCA DE LUMINÁRIAS.;RUA CURITIBA;;ANHANGUERA;JOSE VIVIANI FERRAZ;;-23.58108;-46.65444
669;IND;;670;2003;;PMSP;REVISÃO E TROCA DE LUMINÁRIAS.;RUA BELO HORIZONTE;;ANHANGUERA;JOSE VIVIANI FERRAZ;;-23.5408;-46.60462
670;IND;;671;2003;;PMSP;REVISÃO E TROCA DE LUMINÁRIAS.;RUA GOIAS;;ANHANGUERA;JOSE VIVIANI FERRAZ;;;
671;IND;;672;2003;;PMSP;REVISÃO E TROCA DE LUMINÁRIAS.;RUA NATAL;;ANHANGUERA;JOSE VIVIANI FERRAZ;;;
672;IND;;673;2003;;PMSP;IMPLANTAÇÃO DE BRAÇOS.;RUA CIPRIANO FUNTAN;;PARQUE SÃO RAFAEL;JOSE VIVIANI FERRAZ;;-23.62021;-46.47354
673;IND;;674;2003;;PMSP;IMPLANTAÇÃO DE DOIS POSTES COM LUMINÁRIAS.;RUA CIPRIANO FUNTAN;;PARQUE SÃO RAFAEL;JOSE VIVIANI FERRAZ;;-23.62021;-46.47354
674;IND;;675;2003;;PMSP;TROCA DE BRAÇOS POR MAIS LONGOS.;RUA BARRA DE SANTA ROSA;;VILA CISPER;JOSE VIVIANI FERRAZ;;-23.49195;-46.4946399
675;IND;;676;2003;;PMSP;TROCA DE BRAÇOS POR MAIS LONGAS.;RUA LAGOA NOVA;;VILA CISPER;JOSE VIVIANI FERRAZ;;-23.49103;-46.49598
676;IND;;677;2003;;PMSP;REVISÃO E TROCA DE LUMINÁRIAS.;RUA EMBAIXADOR REGIS DE OLIVEIRA;;VILA CONTINENTAL;JOSE VIVIANI FERRAZ;;-23.46836;-46.65502
677;IND;;678;2003;;PMSP;REVISÃO E TROCA DE LUMINÁRIAS.;RUA CAMPO ERÊ E RUA ACECITA¨¨;;VILA CISPER;JOSE VIVIANI FERRAZ;;-23.4905;-46.49575
678;IND;;679;2003;;PMSP;IMPLANTAÇÃO DE POSTES COM LUMINÁRIAS.;RUA FRANCISCO LUIZ DE SOUZA JUNIOR;;VILA CHALOT;JOSE VIVIANI FERRAZ;;-23.5147799;-46.68863
679;IND;;680;2003;;PMSP;REVISÃO E TROCA DE LUMINÁRIAS.;RUA CORDEIRO DA SILVA;;VILA NOVA PARADA;JOSE VIVIANI FERRAZ;;-23.43711;-46.71603
680;IND;;681;2003;;PMSP;IMPLANTAÇÃO DE BRAÇOS.;RUA JOVINIANO DE OLIVEIRA;;VILA ISABEL;JOSE VIVIANI FERRAZ;;-23.45887;-46.69968
681;IND;;682;2003;;PMSP;IMPLANTAÇÃO DE POSTES COM LUMINÁRIAS.;AV JERÔNIMO DE ANDRADE;;VILA ANGÉLICA;JOSE VIVIANI FERRAZ;;-23.46824;-46.66917
682;IND;;683;2003;;PMSP;REFORMA GERAL;PÇA MARCELINO MACHADO;;VILA MARIA;WADIH JORGE MUTRAN;;-23.49784;-46.58592
683;IND;;684;2003;;PMSP;LIMPEZA E CORTE DE MATO.;ENTRE AS RUAS PE CLEMENTE SEGURA E AUGUSTO ANTUNES;;VILA JACUI;JOSE ROGERIO SHKAIR FARHAT;;-23.51529;-46.47026
684;IND;;685;2003;;PMSP;LIMPEZA E DESRATIZAÇÃO DE PRAÇA.;RUA UNAPITINGA;;CAMPO BELO;JOSE ROGERIO SHKAIR FARHAT;;-23.62158;-46.66503
685;IND;;686;2003;;PMSP;RECAPEAMENTO ASFÁLTICO;RUA GASPAR FERNANDES;;VILA MONUMENTO;DALTON SILVANO DO AMARAL;;-23.57588;-46.61659
686;IND;;687;2003;;ILUME;ILUMINAÇÃO EM PRAÇA;RUA CLODOMIRO PEREIRA;;VILA MONUMENTO;DALTON SILVANO DO AMARAL;;-23.57345;-46.61666
687;IND;;688;2003;;PMSP;RECAPEAMENTO ASFÁLTICO;RUA GASPAR FERNANDES;;VILA MONUMENTO;DALTON SILVANO DO AMARAL;;-23.57588;-46.61659
688;IND;;689;2003;;PMSP;INDICA AO EXECUTIVO MUNICIPAL DA NECESSIDADE DE DECRETAR E REGULAMENTAR O ART 3o DA LEI MUN 10905/90;;;;ANTONIO PAES DA CRUZ;;;
689;IND;;690;2003;;MINISTRO DE ESTADO DA EDUCAÇÃO;INDICA A CRIAÇÃO IMEDIATA DE UMCAMPUS UNIVERSITÁRIO FEDERAL DE SÃO PAULO (UNIFESP) NA ZONA SUL DE S.;;;;CARLOS ALBERTO GIANNAZI;;;
690;IND;;691;2003;;PMSP;INSTALAÇÃO DE SEMÁFORO;AV CORIFEU DE AZEVEDO MARQUES;;VILA PIRAJUSSARA;CELSO DO CARMO JATENE;;-23.55564;-46.7558
691;IND;;692;2003;;PMSP;PAVIMENTAÇÃO;RUA MATÕES;;ERMELINO MATARAZZO;CELSO DO CARMO JATENE;;-23.5231299;-46.64007
692;IND;;693;2003;;PMSP;ILUMINAÇÃO PÚBLICA;RUA MATÕES;;ERMELINO MATARAZZO;CELSO DO CARMO JATENE;;-23.5231299;-46.64007
693;IND;;694;2003;;PMSP;"INSTALAÇÃO DE PLACA ""PROIBIDO TRÁFEGO DE CAMINHÕES";RUA CALIFÓRNIA;;CIDADE MONÇÕES;CELSO DO CARMO JATENE;;-23.61127;-46.68373
694;IND;;695;2003;;PMSP;CONSTRUÇÃO DE PONTE PARA PASSAGEM DE VEÍCULOS.;AV CÓRREGO DO LIMOEIRO;;JD DAS CAMÉLIAS;CELSO DO CARMO JATENE;;-23.50748;-46.4654
695;IND;;696;2003;;PMSP;DESATIVAÇÃO E RETIRADA DEFINITIVA DA USINA DE COMPOSTAGEM DE LIXO DE VILA LEOPOLDINA.;;;VILA LEOPOLDINA;DALTON SILVANO DO AMARAL;;;
696;IND;;697;2003;;SPTRANS;CONSTRUÇÃO DE ABRIGOS;ESTRADA DOM JOÃO NERY;;GUAIANASES;JOSE OLIMPIO SILVEIRA MORAES;;-23.53796;-46.40654
697;IND;;698;2003;;SPTRANS;REFORMA DO ABRIGO DE PONTO DE ÔNIBUS.;AV JOÃO BATISTA CONTI;;COHAB JOSÉ BONIFÁCIO;JOSE OLIMPIO SILVEIRA MORAES;;-23.55187;-46.4355
698;IND;;699;2003;;PMSP;IMPLANTAÇÃO DE TRES POSTES COM LUMINÁRIAS.;TRAV PANATINGA;;PQ RODRIGUES ALVES;JOSE VIVIANI FERRAZ;;-23.74503;-46.6623
699;IND;;700;2003;;PMSP;REVISÃO E TROCA DE LUMINÁRIAS.;RUA FREDERICO EDUARDO MAYR;;CASA VERDE;JOSE VIVIANI FERRAZ;;-23.49044;-46.66463
700;IND;;701;2003;;PMSP;REVISÃO E TROCA DE LUMINÁRIAS.;RUA BENVINDA APARECIDA DE ABREU LEME.;;SANTANA.;JOSE VIVIANI FERRAZ;;-23.498;-46.6233
701;IND;;702;2003;;PMSP;REVISÃO ETROCA DE LUMINÁRIA.;RUA CONS SARAIVA;;;JOSE VIVIANI FERRAZ;;;
702;IND;;703;2003;;PMSP;TROCA E REVISÃO DE LUMINÁRIAS.;RUA DR ARAUJO CASTRO;;JD PERI;JOSE VIVIANI FERRAZ;;-23.46061;-46.66311
703;IND;;704;2003;;PMSP;IMPLANTAÇÃO DE LUMINÁRIAS.;RUA CHAFARIS DAS MARRECAS;;VILA SANTO ANTONIO;JOSE VIVIANI FERRAZ;;-23.43177;-46.7167
704;IND;;705;2003;;PMSP;PAVIMENTAÇÃO ASFÁLTICA;RUA MINISTRO CORREIA DE CASTRO;;VILA SERRALHEIRO;JOSE VIVIANI FERRAZ;;-23.47263;-46.69609
705;IND;;706;2003;;SUBPREFEITO DO DISTRITO DE CAMPO LIMPO;RECAPEAMENTO DE ASFALTO;ESTRADA DE ITAPECERICA;;CAMPO LIMPO;GILBERTO TANOS NATALINI;;-23.65992;-46.77617
