;Sigla da Matéria Legislativa;Ano da propositura;Número da propositura;Ano da propositura.1;Ementa (texto em linha única);Ind. Destinatário;Ind. Motivo;Ind. Endereco;Ind. Adm.Regional;Ind. Bairro;Nome;Partido (último);Latitude;Longitude
0;IND;1997.0;1;1997;;PMSP;ASFALTO;TRAVESSA 2, QUE LIGA A AV. RECANTO VERDE DO SOLA RUA SÃO PEDRO;;JD. SÃO JOSÉ;CARLOS ALBERTO PLETZ NEDER;PARTIDO DOS TRABALHADORES;;
1;IND;;2;1997;;PMSP;ASSEGURA DEVOLUÇÃO DOS RECURSOS EMPRESTADO JUNTOAO IPREM, POR PARTE DO EXECUTIVO MUNICIPAL;IPREM;;;CARLOS ALBERTO PLETZ NEDER;PARTIDO DOS TRABALHADORES;-23.56287;-46.65469
2;IND;;3;1997;;PMSP;PROVIDENCIAR SINALIZAÇÃO ADEQUADA;RUA SÂO URBANO;;PIRITUBA;CARLOS ALBERTO PLETZ NEDER;PARTIDO DOS TRABALHADORES;;
3;IND;;4;1997;;PMSP;ILUMINAÇÃO PUBLICA;PRAÇA TRES TORRES;;JD. HELIOMAR;MARIO POERNER DIAS FERNANDES;DEMOCRATAS;;
4;IND;;5;1997;;PMSP;REALINHAMENTO GEOGRAFICO;RUA JOAÕ FERREIRA DE ABREU;;CAMPO GRANDE;MARIO POERNER DIAS FERNANDES;DEMOCRATAS;-23.68416;-46.68391
5;IND;;6;1997;;PMSP;REABERTURA DE VIA PUBLICA;RUA JOAO FERREIRA DE ABREU;;VILA BOCCHIGLIERI;MARIO POERNER DIAS FERNANDES;DEMOCRATAS;-23.68416;-46.68391
6;IND;;7;1997;;PMSP;INSTALAÇÃO DE SEMÁFORO;RUA GERALDO FRAGA DE OLIVEIRA 205 E 904;;JD. SÃO LUIZ;MARIO POERNER DIAS FERNANDES;DEMOCRATAS;-23.65331;-46.73636
7;IND;;8;1997;;PMSP;COLOCAÇÃO DE LUMINARIAS;TRAVESSA INOMINADA, EXISTENTE NA ALT. DO 183 DARUA 1822;;IPIRANGA;JORGE TABA;PARTIDO SOCIALISTA BRASILEIRO;;
8;IND;;9;1997;;PMSP;ESTUDOS PARA CRIAÇÃO DE HOSP. GERIATRICO, PARAATENDIMENTO EXCLUSIVO DE PACIENTES IDOSOS;HOSP. GERIATRICO MUNICIPAL;;;JORGE TABA;PARTIDO SOCIALISTA BRASILEIRO;;
9;IND;;10;1997;;PMSP;COSNTRUÇÃO DE BUEIROS;RUA DR. JOAO YAZBEK;;IPIRANGA;JORGE TABA;PARTIDO SOCIALISTA BRASILEIRO;;
10;IND;;11;1997;;AO CHEFE DO EXECUTIVO MUNICIPAL;IMPLANTAÇÃO DE UMA PRAÇA PUBLICA;AV. STA INES, AV. PARADA PINTO E RUA CARIOBA;;SANTA INES;MARIA HELENA PEREIRA FONTES;PARTIDO LIBERAL;;
11;IND;;12;1997;;AO CHEFE DO EXECUTIVO MUNICIPAL;DESENTUPIMENTO DE BUEIROS E TUBULAÇÕES;RUA MARAMBAIA PARALELO A RUA BRAZELIZA ALVES DECARVALHO;;CASA VERDE_ALTA;MARIA HELENA PEREIRA FONTES;PARTIDO LIBERAL;-23.51282;-46.65062
12;IND;;13;1997;;PMSP;REPARO NAS CALÇADAS DO POSTO DE SAUDE DO JD.NITEROI;POSTO DE SAUDE DO JD. NITEROI;;PEDREIRA;MARIA HELENA PEREIRA FONTES;PARTIDO LIBERAL;;
13;IND;;14;1997;;PMSP;PODA DE ARVORES;ALAMEDA GABRIEL MONTEIRO DA SILVA C/ AV. BRASIL;;JD. PAULISTA;VICENTE BENEDITO VISCOME;PARTIDO PROGRESSISTA BRASILEIRO;-23.56529;-46.67656
14;IND;;15;1997;;PMSP;CORTE DE GRAMA;RUA GENERAL MENA BARRETO COM RUA MARECHAL BITTEN-COURT;;VILA PRIMAVERA;VICENTE BENEDITO VISCOME;PARTIDO PROGRESSISTA BRASILEIRO;;
15;IND;;16;1997;;PMSP;CORTE DE GRAMA NOS CANTEIROS CENTRAIS;AV. BRASIL;;JD. AMERICA;VICENTE BENEDITO VISCOME;PARTIDO PROGRESSISTA BRASILEIRO;-23.57078;-46.6703
16;IND;;17;1997;;PMSP;OBSTRUÇÃO DE BURACO;RUA GROELANDIA COM RUA FRANÇA;;JD. EUROPA;VICENTE BENEDITO VISCOME;PARTIDO PROGRESSISTA BRASILEIRO;-23.5731;-46.67389
17;IND;;18;1997;;PMSP;CRIAÇÃO DE LINHA DE ONIBUS;VILA IARA;;PIRITUBA;VICENTE BENEDITO VISCOME;PARTIDO PROGRESSISTA BRASILEIRO;-23.48139;-46.74189
18;IND;;19;1997;;PMSP;REMOÇÃO DE PONTO DE ÔNIBUS;RUA AZEVEDO SOARES COM RUA MONTE SERRAT;;TATUAPÉ;VICENTE BENEDITO VISCOME;PARTIDO PROGRESSISTA BRASILEIRO;-23.54826;-46.56332
19;IND;;20;1997;;PMSP;IMPLANTAÇÃO DE LOMBADAS;RUA ELISEU DE ALMEIDA ALT. 2000;;BUTANTA;VICENTE BENEDITO VISCOME;PARTIDO PROGRESSISTA BRASILEIRO;-23.5845699;-46.7280998
20;IND;;21;1997;;PMSP;LIMPEZA NOS BUEIROS;RUA SILVEIRA DA MOTA;;CAMBUCI;VICENTE BENEDITO VISCOME;PARTIDO PROGRESSISTA BRASILEIRO;-23.56032;-46.61986
21;IND;;22;1997;;PMSP;AMPLIAÇÃO NAS GALERIAS PLUVIAIS;RUA SILVEIRA DA MOTA;;CAMBUCI;VICENTE BENEDITO VISCOME;PARTIDO PROGRESSISTA BRASILEIRO;-23.56032;-46.61986
22;IND;;23;1997;;PMSP;CONSTRUÇÃO DE BAIA;LARGO UBIRAJARA;;MOOCA;VICENTE BENEDITO VISCOME;PARTIDO PROGRESSISTA BRASILEIRO;-23.68619;-46.67043
23;IND;;24;1997;;PMSP;LIMPEZA DE BUEIROS;RUA JOÃO VICENTE DA FONSECA;;PQ. SÃO RAFAEL;VICENTE BENEDITO VISCOME;PARTIDO PROGRESSISTA BRASILEIRO;-23.6325;-46.47443
24;IND;;25;1997;;PMSP;RECAPEAMENTO ASFALTICO;ESTRADA DA BARREIRA GRANDE;;BARREIRA GRANDE;VICENTE BENEDITO VISCOME;PARTIDO PROGRESSISTA BRASILEIRO;-23.58953;-46.50857
25;IND;;26;1997;;PMSP;ILUMINAÇÃO PUBLICA;RUA MARQUES DE VALENÇA;MO;MOOCA;VICENTE BENEDITO VISCOME;PARTIDO PROGRESSISTA BRASILEIRO;-23.5585999;-46.59246
26;IND;;27;1997;;PMSP;LIMPEZA DE TERRENO;RUA SANA MUNDO ALTURA DO 100;;JD ELIANE;VICENTE BENEDITO VISCOME;PARTIDO PROGRESSISTA BRASILEIRO;-23.55715;-46.50391
27;IND;;28;1997;;PMSP;COBERTURA DOS PONTOS DE ONIBUS;RUA SIQUEIRA BUENO, EM TODA SUA EXTENSAO;MO;MOOCA;VICENTE BENEDITO VISCOME;PARTIDO PROGRESSISTA BRASILEIRO;-23.55073;-46.58764
28;IND;;29;1997;;PMSP;LIMPEZA DE TERRENO;SRUA CAMALOTILHO COM RUA CALAGUALA;;JD ELIANE;VICENTE BENEDITO VISCOME;PARTIDO PROGRESSISTA BRASILEIRO;-23.55683;-46.5045
29;IND;;30;1997;;PMSP;CONSTRUÇÃO DE SARJETOEES;CRUZAMENTO DA R CAPITAO ALCOOK COM A R CARLOS DOSSANTOS;MG;JD BRASIL;WADIH JORGE MUTRAN;PARTIDO DEMOCRATICO TRABALHISTA;;
30;IND;;31;1997;;PMSP;CAPEAMENTO ASFALTICO;R MARGARINO TORRES, TRECHO ENTRE A R DIAS DA SILVAATE A R CARMOPOLIS DE MINAS;MG;V MARIA;WADIH JORGE MUTRAN;PARTIDO DEMOCRATICO TRABALHISTA;;
31;IND;;32;1997;;PMSP;CONSTRUCAO DE LOMBADA;CRUZAMENTO DA R ELI COM R MARGARINO TORRES;MG;V MARIA;WADIH JORGE MUTRAN;PARTIDO DEMOCRATICO TRABALHISTA;;
32;IND;;33;1997;;PMSP;COLOCAÇÃO DE PLACAS DENEOMINATIVAS;CRUZAMENTO DA R ELI COM R MARGARINO TORRES;MG;V MARIA;WADIH JORGE MUTRAN;PARTIDO DEMOCRATICO TRABALHISTA;;
33;IND;;34;1997;;PMSP;CONSTRUÇÃO DE LOMBADA;R ARARITAGUABA ENTRE A AV. GUILHERME COTCHING ER NEWTON BRAGA;MG;V MARIA;WADIH JORGE MUTRAN;PARTIDO DEMOCRATICO TRABALHISTA;;
34;IND;;35;1997;;PMSP;ASFALTO;AV LUIGI ARDITI;SA;JD MARIA LUISA;WADIH JORGE MUTRAN;PARTIDO DEMOCRATICO TRABALHISTA;-23.68173;-46.66727
35;IND;;36;1997;;PMSP;PROIBIDO O ESTACIONAMENTO DE VEICULOS EM TODA AEXTENSAO;RUA AUGUSTA, SENTIDO BAIRRO CIDADE;;;JOSE IZAR;PARTIDO DA FRENTE LIBERAL;-23.54614;-46.6899
36;IND;;37;1997;;PMSP;RETIRADA DO PONTO DE LIXO;R CALÇADA DO NIVEL SITUADO A RUA BUTANTÃ, 25;;;JOSE IZAR;PARTIDO DA FRENTE LIBERAL;-23.56799;-46.69645
37;IND;;38;1997;;PMSP;SAO PAULO TRANSPOROTTES S/A VISANDO UMA REVISAONOS ONIBUS ELETRICOS QUE FAZEM O PERCURSO;RUA AUGUSTA/MANDAQUE E SAO JOSE DO BELEM;;;JOSE IZAR;PARTIDO DA FRENTE LIBERAL;-23.54106;-46.59479
38;IND;;39;1997;;PMSP;PRECARIAS CONDIÇÕES DE SEGURANÇA DO MINI PARQUEINFANTIL;RUA SAO MANOEL;;PINHEIROS;JOSE IZAR;PARTIDO DA FRENTE LIBERAL;-23.56921;-46.69616
39;IND;;40;1997;;PMSP;SAO PAULO TRANSPORTES - REVISAO NOS ONIBUS QUE TRAFEGAM;AV BRIG. LUIS ANTONIO EM AMBOS OS SENTIDOS;;;JOSE IZAR;PARTIDO DA FRENTE LIBERAL;-23.55079;-46.63685
40;IND;;41;1997;;PMSP;IMPLANTAÇAO DE GALERIAS DE AGUAS PLUVIAIS;RUA DOMINGOS JOSE SAPIENZA, RUA ELZA GUIMARAES,PÇA DOM ELVECIO GOMES DE OLIVEIRA E RUA FELISBERTOFREIRE;;V AMALIA;JOSE VIVIANI FERRAZ;PARTIDO LIBERAL;;
41;IND;;42;1997;;PMSP;COLOCAÇÃO DE LUMINARIA NO ULTIMO POSTE;RUA TAIJACICA, ALTURA DO N. 340;;JD RECANTO;JOSE VIVIANI FERRAZ;PARTIDO LIBERAL;;
42;IND;;43;1997;;PMSP;PODAR A GRAMA;AV WALDEMAR FERREIRA;BT;BUTANTA;JOSE IVO MORGANTI LEITE;PART.DO MOVIMENTO DEMOCRATICO BRASILEIRO;-23.57017;-46.70619
43;IND;;44;1997;;PMSP;ALARGAR;AV 23 DE MAIODO SEU INICIO ATE A BENEFICENCIA PORTUGUESA;;CENTRO;JOSE IVO MORGANTI LEITE;PART.DO MOVIMENTO DEMOCRATICO BRASILEIRO;-23.54018;-46.63549
44;IND;;45;1997;;pmsp;LEVANTAR O MURO DO CEMITERIO SAO PAULO;AV. SUMARE ATE RUA CARDEAL ARCOVERDE;;PINHEIROS;JOSE IVO MORGANTI LEITE;PART.DO MOVIMENTO DEMOCRATICO BRASILEIRO;-23.5609;-46.68707
45;IND;;46;1997;;PMSP;REDUTOR DE VELOCIDADE;RUA CHARLES SPENCER CHAPLIN, PROXIMO AO N. 243;BT;V ANDRADE;JOSE IVO MORGANTI LEITE;PART.DO MOVIMENTO DEMOCRATICO BRASILEIRO;-23.62349;-46.73631
46;IND;;47;1997;;PMSP;LIMPEZA DO PARQUE;PRAÇA VINICIUS DE MORAES COM AV. GIOVANNI GRONCHI;BT;MORUMBI;JOSE IVO MORGANTI LEITE;PART.DO MOVIMENTO DEMOCRATICO BRASILEIRO;-23.59909;-46.71089
47;IND;;48;1997;;PMSP;PAVIMENTAÇÃO ASFALTICA;VIELA QUE SAI DA RUA JOAQUIM PRUDENCIO ATE A RUAJOAO OLIVEIRA SALGADO;;JD PERI;JOSE VIVIANI FERRAZ;PARTIDO LIBERAL;;
48;IND;;49;1997;;PMSP;PAVIMENTAÇÃO;RUA COPA DO MUNDO;EM;V PARANAGUA;NATALICIO BEZERRA SILVA;PARTIDO TRABALHISTA BRASILEIRO;-23.49918;-46.47763
49;IND;;50;1997;;PMSP;PAVIMENTAÇÃO;VIELA NA ALTURA DO N. 250 DA RUA CANDIDA RAMOS;CS;JD REIMBERG;NATALICIO BEZERRA SILVA;PARTIDO TRABALHISTA BRASILEIRO;-23.7500044;-46.6937042
50;IND;;51;1997;;PMSP;TROCA DA TAMPA DA CAIXA DE INSPEÇÃO;RUA GIOVANNI DE MILANO DEFRONTE AO N.301;CL;JD MITSUTANI;NATALICIO BEZERRA SILVA;PARTIDO TRABALHISTA BRASILEIRO;-23.64914;-46.78189
51;IND;;52;1997;;PMSP;LIMPAR BOCA DE LOBO;AV. BRIGADEIRO LUIS ANTONIO EQUINA COM RUA MAJORDIOGO;;BELA VISTA;JOSE IVO MORGANTI LEITE;PART.DO MOVIMENTO DEMOCRATICO BRASILEIRO;-23.55772;-46.64105
52;IND;;53;1997;;PMSP;TAPAR BURACOS;RUA PALMARES;;AEROPORTO;JOSE IVO MORGANTI LEITE;PART.DO MOVIMENTO DEMOCRATICO BRASILEIRO;-23.632;-46.66937
53;IND;;54;1997;;PMSP;LIMPAR BOCA DE LOBO;NOS QUATRO CANTOS DA AV. NOVE DE JULHO COM A RUAESTADOS UNIDOS;;JD. AMERICA;JOSE IVO MORGANTI LEITE;PART.DO MOVIMENTO DEMOCRATICO BRASILEIRO;;
54;IND;;55;1997;;PMSP;TAPAR BURACOS;AV. FRANCISCO MATARAZZO DESDE A SAIDA DO ELEVADOCOSTA E SILVA ATE O PARQUE ANTARTICA;;AGUA BRANCA__LAPA;JOSE IVO MORGANTI LEITE;PART.DO MOVIMENTO DEMOCRATICO BRASILEIRO;;
55;IND;;56;1997;;PMSP;LIMPAR BOCA DE LOBO;AV. LAVANDISCA, 204;;MOEMA;JOSE IVO MORGANTI LEITE;PART.DO MOVIMENTO DEMOCRATICO BRASILEIRO;-23.60032;-46.66734
56;IND;;57;1997;;PMSP;PAVIMENTAÇÃO;TRAVESSA RODA VIVA;;CASA VERDE;PIERRE ALEXANDRE DE FREITAS;PARTIDO DA SOCIAL DEMOCRACIA BRASILEIRA;-23.45454;-46.72977
57;IND;;58;1997;;PMSP;TAPAR UMA VALA;RUA BENTO ALVES NASCIMENTO, ALT. DO NUMERO 220;;VILA BRASILANDIA;PIERRE ALEXANDRE DE FREITAS;PARTIDO DA SOCIAL DEMOCRACIA BRASILEIRA;-23.4613799;-46.6989
58;IND;;59;1997;;PMSP;COLOCAR LUZ DE MERCURIO;RUA DOMINGOS COELHO;;PIRITUBA;PIERRE ALEXANDRE DE FREITAS;PARTIDO DA SOCIAL DEMOCRACIA BRASILEIRA;-23.50467;-46.58693
59;IND;;60;1997;;PMSP;BOCAS DE LOBO,SARJETAS E GUIAS NA RUA LUIZ GONZAGA;RUA LUIZ GONZAGA;;PARADA DE TAIPAS;PIERRE ALEXANDRE DE FREITAS;PARTIDO DA SOCIAL DEMOCRACIA BRASILEIRA;;
60;IND;;61;1997;;PMSP;RECAPEAMENTO ASFALTICO;RUA LUIZ GONZAGA;;PARADA DE TAIPAS;PIERRE ALEXANDRE DE FREITAS;PARTIDO DA SOCIAL DEMOCRACIA BRASILEIRA;;
61;IND;;62;1997;;PMSP;PARA DAR DENOMINAÇÃO A ESCOLA EMEI VILA LIVREIRO;RUA PROF. ARNALDO SEMERANO, S/NUMERO;;VILA LIVIERO;DOMINGOS ODONE DISSEI;PARTIDO SOCIAL DEMOCRATICO;-23.64856;-46.59906
62;IND;;63;1997;;PMSP;REFORÇO NA ILUMINAÇÃO;RUA ALBINO MAIA, ALT. DA RUA TEREZINHA;;VILA MATIAS;VICENTE BENEDITO VISCOME;PARTIDO PROGRESSISTA BRASILEIRO;;
63;IND;;64;1997;;PMSP;COBERTURA DE ONIBUS;AV. CIPRIANO RODRIGUES, ALTURA DO N. 420;AF;V. FORMOSA;VICENTE BENEDITO VISCOME;PARTIDO PROGRESSISTA BRASILEIRO;-23.5752403;-46.5292182
64;IND;;65;1997;;PMSP;RESTAURAÇÃO ATRAVES DE RECAPEAMENTO DO LEITO CARROÇAVEL, LIMPEZA E CALÇAMENTO;RUA CAROLINA ROQUE. RUA EDMUNDO KIRMAIR E RUAS JOAO ROQUE E ATLANTICO MERIDIONAL;;;MARIA HELENA PEREIRA FONTES;PARTIDO LIBERAL;;
65;IND;;66;1997;;PMSP;LIMPEZA DO CORREGO;RUA ABILIO PEREIRA DE ALMEIDA, 413;;SAO DOMINGOS;MARIA HELENA PEREIRA FONTES;PARTIDO LIBERAL;-23.57866;-46.75255
66;IND;;67;1997;;PMSP;LIMPEZA E O AJARDIMENTO DA PRAÇA;TRAVESSA GENEVE, DENOMINADA VIANA DE ALENTEJO;;LAUZANE PAULISTA;MARIA HELENA PEREIRA FONTES;PARTIDO LIBERAL;;
67;IND;;68;1997;;PMSP;INSTALAÇÃO DE POSTE DE ILUMINAÇÃO;RUA JOSE ZAPPI, 682;VP;V PRUDENTE;ARCHIBALDO FENICIO ZANCRA;PARTIDO LIBERAL;-23.57546;-46.5839799
68;IND;;69;1997;;PMSP;LIGAÇÃO DE REDE DE ESGOTO;RUA FREI WALTER KEMPT;VP;V INDUSTRIAL;ARCHIBALDO FENICIO ZANCRA;PARTIDO LIBERAL;-23.60364;-46.52485
69;IND;;70;1997;;PMSP;EXTENSAO DA REDE ELETRICA;RUA JACINTO MENEZES PALHARES;VP;V ALPINA;ARCHIBALDO FENICIO ZANCRA;PARTIDO LIBERAL;-23.58551;-46.56497
70;IND;;71;1997;;PMSP;EXTENSAO DE REDE DE AGUA;RUA JACINTO MENEZES PALHARES;VP;V ALPINA;ARCHIBALDO FENICIO ZANCRA;PARTIDO LIBERAL;-23.58551;-46.56497
71;IND;;72;1997;;PMSP;ESTUDOS VISANDO DAR SEGURANÇA NA TRAVESSIA DE PE-DESTRES NO CRUZAMENTO;RUAS LUIZ PIRES DE MINAS COM MAESTRO ISAIAS SAVIO;VP;JD IMPERADOR;ARCHIBALDO FENICIO ZANCRA;PARTIDO LIBERAL;;
72;IND;;73;1997;;PMSP;COLOCAÇÃO DE RASPA DE ASFALTO NA VIELA;RUA ALEIXO ANTONIO A ESTRADA DA BARREIRA GRANDE,ALTURA DO N. 2455;VP;V RICA;ARCHIBALDO FENICIO ZANCRA;PARTIDO LIBERAL;;
73;IND;;74;1997;;PMSP;INSTALAÇÃO DO POSTE COM LUMINARIA;"RUA GENOVA ENTRE OS N; 25 E 149";;PQ BANCARIO;ARCHIBALDO FENICIO ZANCRA;PARTIDO LIBERAL;-23.461542;-46.6071255
74;IND;;75;1997;;PMSP;INSTALAÇÃO DE UM PONTO DE TAXI;PRAÇA MARECHAL DEODORO COM A RUA ALBUQUERQUE LINS;;;ANTONIO SALIM CURIATI JUNIOR;PARTIDO PROGRESSISTA BRASILEIRO;-23.61427;-46.72063
75;IND;;76;1997;;PMSP;ENCAMINHAMENTO DE PL QUE DISPOE SOBRE A REESTRUTU-RAÇÃO DA CLASSE DOS SUPERVISORES DE CURSO DE FABES;;;;ANTONIO SALIM CURIATI JUNIOR;PARTIDO PROGRESSISTA BRASILEIRO;;
76;IND;;77;1997;;PMSP;SEJA VERIFICADO PROBLEMA A RESPEITO DE EVENTUAL O-CORRENCIA DE CASOS DE ALERGIA;;;BAIRRO JD ANTARTICA II;ANTONIO SALIM CURIATI JUNIOR;PARTIDO PROGRESSISTA BRASILEIRO;;
77;IND;;78;1997;;PMSP;ASFALTAMENTO;RUA JOAO AVELINO PINHO MELAO;BT;JD COLOMBO;ANTONIO SALIM CURIATI JUNIOR;PARTIDO PROGRESSISTA BRASILEIRO;-23.60795;-46.72359
78;IND;;79;1997;;PMSP;CONSTRUÇÃO DE UM VIADUTO;LARGO SAO MATEUS;;SAO MATEUS;ANTONIO SALIM CURIATI JUNIOR;PARTIDO PROGRESSISTA BRASILEIRO;-23.4967;-46.6928399
79;IND;;80;1997;;SECRETARIA DA SEGURANÇA PUBLICA EST.S.P.;INSTALAÇÃO DE UM POSTO POLICIAL;JD ANTARTICA II;;JD ANTARTICA II;ANTONIO SALIM CURIATI JUNIOR;PARTIDO PROGRESSISTA BRASILEIRO;-23.52738;-46.67371
80;IND;;81;1997;;PMSP;IMPLANTAÇÃO DE ILUMINAÇÃO PUBLICA;;;JD ANTARTICA II;ANTONIO SALIM CURIATI JUNIOR;PARTIDO PROGRESSISTA BRASILEIRO;;
81;IND;;82;1997;;PMSP;ESTABELECER QUE A COMPOSIÇÃO DAS DREMS SEJA NO MA-XIMO DE CINQUENTA E SEIS ESCOLAS;;;;ANNA M. Q. BRANT DE CARVALHO;PARTIDO DA SOCIAL DEMOCRACIA BRASILEIRA;;
82;IND;;83;1997;;PMSP - SECRET.MUNICIPAL DA EDUCAÇÃO;ESTABELECER QUE O MODULO DOS SUPERVISORES DE ENSI-NO DA PREF.MUNIC.SEJA COMPOSTO DE SETE ESCOLAS;;;;ANNA M. Q. BRANT DE CARVALHO;PARTIDO DA SOCIAL DEMOCRACIA BRASILEIRA;;
83;IND;;84;1997;;PMSP;TRANSFORMAR A REGIÃO DE TAIPAS EM DISTRITOAUTONOMO;REGIÃO DE TAIPAS;;TAIPAS;JOSE VIVIANI FERRAZ;PARTIDO LIBERAL;;
84;IND;;85;1997;;PMSP;ITAQUERA;RUA SERRA DE SÃO DOMINGOS, ALT. DO 770;;VILA CARMOSINA;VICENTE BENEDITO VISCOME;PARTIDO PROGRESSISTA BRASILEIRO;-23.55282;-46.45172
85;IND;;86;1997;;AO CHEFE DO EXECUTIVO MUNICIPAL;LIMPEZA DO CÓRREGO;CORREGO EXISTENTE EM TODA A EXTENSÃO DA RUAOLIVEIRA MARTINS, DA AV. PARADA PINTO ATÉ ARUA GENERAL PENHA BRASIL;;VILA DIONÍSIA;MARIA HELENA PEREIRA FONTES;PARTIDO LIBERAL;;
86;IND;;87;1997;;PMSP;REDUTOR DE VELOCIDADE;RUA DR. LUIZ AYRES PROXIMO AOS NUMEROS 1540 - 1584;;ARTHUR ALVIM;JOSE IVO MORGANTI LEITE;PART.DO MOVIMENTO DEMOCRATICO BRASILEIRO;-23.53895;-46.48622
87;IND;;88;1997;;PMSP;RETIRADA DE UMA ÁRVORE;AV. BRIGADEIRO LUIS ANTONIO, 4856;;JD. PAULISTA;JOSE IVO MORGANTI LEITE;PART.DO MOVIMENTO DEMOCRATICO BRASILEIRO;-23.56997;-46.65125
88;IND;;89;1997;;PMSP;TAPAR BURACO;RUA DESCAMPADO;;VILA DAS MERCÊS;JOSE IVO MORGANTI LEITE;PART.DO MOVIMENTO DEMOCRATICO BRASILEIRO;-23.60227;-46.59451
89;IND;;90;1997;;PMSP;RETIRAR ENTULHO;RUA TAMOIO, 430;;AEROPORTO;JOSE IVO MORGANTI LEITE;PART.DO MOVIMENTO DEMOCRATICO BRASILEIRO;-23.63121;-46.6632
90;IND;;91;1997;;PMSP;TAPAR BURACO;RUA FRATERNO DE MELO ALMADA;;SÃO JOÃO CLÍMACO;JOSE IVO MORGANTI LEITE;PART.DO MOVIMENTO DEMOCRATICO BRASILEIRO;-23.6275;-46.5926199
91;IND;;92;1997;;PMSP;ASSEGURAR O ATENDIMENTO DAS CRIANÇAS DE 4 A 7 ANOSQUE ESTAVAM MATRICULADAS NA CRECHE MUNICIPAL;RUA LUIS ROSSETI, 496;;SÃO MATEUS;CARLOS ALBERTO PLETZ NEDER;PARTIDO DOS TRABALHADORES;-23.60227;-46.4754999
92;IND;;93;1997;;PMSP;COLOCAÇÃO DE TAMPAS DE BUEIRO;RUA BEM AVENTURADO TEÓFANO VENARA 197 E 333;;VILA MISSIONÁRIA;MARIO POERNER DIAS FERNANDES;DEMOCRATAS;-23.68659;-46.64882
93;IND;;94;1997;;PMSP;SERVIÇO TAPA-BURACO;RUA GERALDO FRAGA DE OLIVEIRA;;JD. SÃO LUIZ;MARIO POERNER DIAS FERNANDES;DEMOCRATAS;-23.6531999;-46.73789
94;IND;;95;1997;;PMSP;RECAPEAMENTO ASFÁLTICO;RUA ARLINDO FRAGA DE OLIVEIRA;;JD. SÃO LUIZ;MARIO POERNER DIAS FERNANDES;DEMOCRATAS;-23.65152;-46.73471
95;IND;;96;1997;;PMSP;REFORMA DE LOMBADAS;RUA PAQUISTÃO;;JD. RANIERI;MARIO POERNER DIAS FERNANDES;DEMOCRATAS;-23.627;-46.58605
96;IND;;97;1997;;PMSP;RECAPEAMENTO ASFÁLTICO;RUA PAQUISTÃO;;JD. RANIERI;MARIO POERNER DIAS FERNANDES;DEMOCRATAS;-23.627;-46.58605
97;IND;;98;1997;;PMSP;SERVIÇO TAPA-BURACO;RUA IVIRAPEMA ESQUINA COM RUA BEIRA ALTA;;PARQUE PAIOLZINHO;MARIO POERNER DIAS FERNANDES;DEMOCRATAS;;
98;IND;;99;1997;;PMSP;PAVIMENTAÇÃO ASFÁLTICA;RUAS JORGE BUONI E HERVÉ CORDOVIL;;CAPÃO REDONDO;MARIO POERNER DIAS FERNANDES;DEMOCRATAS;-23.65689;-46.78366
99;IND;;100;1997;;PMSP;PAVIMENTAÇÃO ASFÁLTICA;RUA DA OLARIA;;PARQUE SANTA BARBARA;MARIO POERNER DIAS FERNANDES;DEMOCRATAS;-23.58982;-46.7504599
100;IND;;101;1997;;PMSP;RECAPEAMENTO ASFÁLTICA;RUAS MARSALA E NOVA PROVIDÊNCIA;;PARQUE BOULOGNE;MARIO POERNER DIAS FERNANDES;DEMOCRATAS;-23.7022;-46.7758899
101;IND;;102;1997;;PMSP;LIMPEZA DE TERRENO BALDIO;RUA JOSÉ JOAQUIM ESTEVES, 327;;JD. SÃO LUIZ;MARIO POERNER DIAS FERNANDES;DEMOCRATAS;-23.65793;-46.72883
102;IND;;103;1997;;PMSP;PODA DE RAÍZES DE ÁRVORE;RUA BOOKER PITTMAN, 251;;JD. SANTO ANTONIO;MARIO POERNER DIAS FERNANDES;DEMOCRATAS;-23.63312;-46.70908
103;IND;;104;1997;;PMSP;PODA DE MATO E LIMPEZA;RUA DO INGÁ 50 (EEPG PROFESSORA JUVENTINA PATRÍCIASANTANA);;CIDADE ADEMAR;MARIO POERNER DIAS FERNANDES;DEMOCRATAS;-23.67085;-46.65763
104;IND;;105;1997;;PMSP;TAPAR BURACOS;AV. NAÇÕES UNIDAS ESQUINA COM AV. INTERLAGOS;;SANTO AMARO;JOSE IVO MORGANTI LEITE;PART.DO MOVIMENTO DEMOCRATICO BRASILEIRO;-23.66365;-46.7098299
105;IND;;106;1997;;PMSP;TAPAR BURACOS;RUA AMERICO BRASILIENSE;SA;ALTO DA BOA VISTA;JOSE IVO MORGANTI LEITE;PART.DO MOVIMENTO DEMOCRATICO BRASILEIRO;-23.6802199;-46.64466
106;IND;;107;1997;;PMSP;LIMPAR A PRAÇA;RUA CONEGO EUGENIO LEITE COM RUA GABRIEL MONTEIRODA SILVA;;JD PAULISTANO;JOSE IVO MORGANTI LEITE;PART.DO MOVIMENTO DEMOCRATICO BRASILEIRO;-23.56696;-46.6771699
107;IND;;108;1997;;PMSP;REMOÇÃO DE UMA ARVORE;RUA PAULO GONÇALVES, 208;;SANTANA;JOSE IVO MORGANTI LEITE;PART.DO MOVIMENTO DEMOCRATICO BRASILEIRO;-23.4950699;-46.62761
108;IND;;109;1997;;PMSP;REBAIXAMENTO DE GUIA;RUA PAULO GONÇALVES, 208;;SANTANA;JOSE IVO MORGANTI LEITE;PART.DO MOVIMENTO DEMOCRATICO BRASILEIRO;-23.4950699;-46.62761
109;IND;;110;1997;;PMSP;LIMPEZA E DESOBSTRUÇÃO DO CORREGO PONTE RASA;AV BUENOS AIRES;PE;V BUENOS AIRES;VICENTE BENEDITO VISCOME;PARTIDO PROGRESSISTA BRASILEIRO;-23.51223;-46.51737
110;IND;;111;1997;;PMSP;CONSTRUÇÃO DE MURO E LIMPEZA DE TERRENO;AV SAO MIGUEL, ALTURA DO N. 1200;PE;PQ EDUARDO;VICENTE BENEDITO VISCOME;PARTIDO PROGRESSISTA BRASILEIRO;;
111;IND;;112;1997;;PMSP;LIMPEZA TERRENO;RUA PILAR DO SUL, ALTURA DO N. 419;;ITAQUERA;VICENTE BENEDITO VISCOME;PARTIDO PROGRESSISTA BRASILEIRO;-23.54388;-46.42889
112;IND;;113;1997;;PMSP;PAVIMENTAÇÃO ASFALTICA;RUA ALFONSO FERNANDES;SM;JD DA LARANJEIRA;VICENTE BENEDITO VISCOME;PARTIDO PROGRESSISTA BRASILEIRO;;
113;IND;;114;1997;;PMSP;CONSTRUÇÃO DE UMA PONTE SOBRE O RIO TIETE PARA DARCONTINUIDADE A AV. RAIMUNDO PEREIRA DE MAGALHAES;PIRITUBA E LAPA;LA;LAPA;JOSE IVO MORGANTI LEITE;PART.DO MOVIMENTO DEMOCRATICO BRASILEIRO;-23.46625;-46.7235
114;IND;;115;1997;;PMSP;CORTAR A GRAMA;AV BRASIL;;JD AMERIA;JOSE IVO MORGANTI LEITE;PART.DO MOVIMENTO DEMOCRATICO BRASILEIRO;-23.57078;-46.6703
115;IND;;116;1997;;PMSP;LIMPEZA DO PARQUE;PRAÇA SANTOS COIMBRA COM AV. GIOVANNI GRONCHI;BT;MORUMBI;JOSE IVO MORGANTI LEITE;PART.DO MOVIMENTO DEMOCRATICO BRASILEIRO;;
116;IND;;117;1997;;PMSP;PROLONGAMENTO DO VIADUTO POMPEIA SOBRE AV. FRANCISCO MATARAZZO E A RUA TURIASSU;AV FRANCISCO MATARAZZO E RUA TURIASSU;;LAPA;JOSE IVO MORGANTI LEITE;PART.DO MOVIMENTO DEMOCRATICO BRASILEIRO;-23.52571;-46.68003
117;IND;;118;1997;;PMSP;FECHAMENTO DA BOCA DE LOBO;RUA GUILHERME DUMONT VILARES, ESQUINA COM RUA CHARLES SPENCER CHAPLIN;BT;V ANDRADE;JOSE IVO MORGANTI LEITE;PART.DO MOVIMENTO DEMOCRATICO BRASILEIRO;-23.62293;-46.73722
118;IND;;119;1997;;PMSP;RECUPERAÇÃO DO TALUDE;RUA REALCE;;JD ANTARTICA II;JOSE VIVIANI FERRAZ;PARTIDO LIBERAL;-23.52319;-46.66975
119;IND;;120;1997;;GOVERNADOR DO ESTADO;ORGAOS RESPONSAVEIS PELA PRESTAÇÃO DOS SERVIÇOS DEELETRICIDADE E DESTRUIÇÃO DE AGUA FAÇAS ISENTOS;ENTIDADES RELIGIOSAS E OU SOCIAS;;;ALTAMIRO CELSO CARDOSO;PARTIDO PROGRESSISTA BRASILEIRO;;
120;IND;;121;1997;;PMSP;RECAPEAMENTO;RUA PEDROSO ALVLARENGA DESDE A RUA IGUATEMI ATE AAV. SAO GABRIEL;;ITAIM BIBI;JOSE IVO MORGANTI LEITE;PART.DO MOVIMENTO DEMOCRATICO BRASILEIRO;;
121;IND;;122;1997;;PMSP;LIMPAR PRAÇA CIDADE DE MILAO;AV IBIRAPUERA COM AV. IV CENTENARIO;;MOEMA;JOSE IVO MORGANTI LEITE;PART.DO MOVIMENTO DEMOCRATICO BRASILEIRO;-23.59385;-46.66044
122;IND;;123;1997;;PMSP;INSTALAÇÃO DE UM SEMAFORO;RUA PEIXOTO WERNECK ESQUINA COM A RUA DR. LUIZ AY-RES;PE;ARTHUR ALVIM;JOSE IVO MORGANTI LEITE;PART.DO MOVIMENTO DEMOCRATICO BRASILEIRO;-23.54137;-46.48682
123;IND;;124;1997;;PMSP;CORTAR A GRAMA;AV SUMARE DA RUA CAIUBI ATE O PQ ANTARTICA;LA;SUMARE;JOSE IVO MORGANTI LEITE;PART.DO MOVIMENTO DEMOCRATICO BRASILEIRO;;
124;IND;;125;1997;;PMSP;CORTAR O GRAMA;AV SUMARE ATE A RUA CAIUBI;;SUMARE;JOSE IVO MORGANTI LEITE;PART.DO MOVIMENTO DEMOCRATICO BRASILEIRO;-23.53931;-46.67516
125;IND;;126;1997;;PMSP;TAPAR BURACO;RUA SENA MADUREIRA COM RUA BOTUCATU;;VILA MARIANA;JOSE IVO MORGANTI LEITE;PART.DO MOVIMENTO DEMOCRATICO BRASILEIRO;-23.59418;-46.64349
126;IND;;127;1997;;PMSP;PODAR A GRAMA;PRAÇA VICENTE RODRIGUES;;JD. GUEDALA;JOSE IVO MORGANTI LEITE;PART.DO MOVIMENTO DEMOCRATICO BRASILEIRO;-23.56767;-46.70755
127;IND;;128;1997;;PMSP;VILA MARINA;PRAÇA CARLOS GARDEL, JUNTO AO CÍRCULO MILITAR;;PARAISO;JOSE IVO MORGANTI LEITE;PART.DO MOVIMENTO DEMOCRATICO BRASILEIRO;;
128;IND;;129;1997;;PMSP;TAPAR BURACOS;RUA JESUINO ARRUDA, ENTRE A AV. SÃO GABRIEL E RUARENATO PAES DE BARROS;;ITAIM BI-BI;JOSE IVO MORGANTI LEITE;PART.DO MOVIMENTO DEMOCRATICO BRASILEIRO;;
129;IND;;130;1997;;PMSP;CONSTRUÇÃO DE UM HOSPITAL-MATERNIDADE MUNICIPALEXCLUSIVO AO ATENDIMENTO DE GESTANTES;ZONA LESTE;;ZONA LESTE;LUIS PASCHOAL;PARTIDO LIBERAL;-23.57297;-46.43357
130;IND;;131;1997;;PMSP;DELEGAR AO SR. SECRETARIO DE EDUCAÇÃO DE S.P.-PARAEFETUAR NOMEAÇÕES EM COMISSÃO E CONTRATAÇÕES;ESCOLAS MUNICIPAIS;;;ANNA M. Q. BRANT DE CARVALHO;PARTIDO DA SOCIAL DEMOCRACIA BRASILEIRA;;
131;IND;;132;1997;;AO SR. SECRETARIO MUNICIPAL DA FAMILIA;ATENDER AS FAMÍLIAS CARENTES, DANDO ASSISTÊNCIA ASCRIANÇAS DESAMPARADAS;CONJ. HABITACIONAL JD. ANTÁRTICA;;JD. ANTARTICA;JOSE VIVIANI FERRAZ;PARTIDO LIBERAL;-24.00642;-46.45737
132;IND;;133;1997;;SECRETARIO MUNICIPAL DE TRANSPORTES;ALTERAR O TRAJETO DA LINHA 9621;VILA SOUZA/PRAÇA DO CORREIO;;VILA SOUZA;JOSE VIVIANI FERRAZ;PARTIDO LIBERAL;-23.5442;-46.63627
133;IND;;134;1997;;PMSP;OBRA INACABADA DO MERCADO MUNICIPAL DE VILA NOVACACHOERINHA P/ INSTALAÇÃO DE CENTRO CULTURAL;ENTRE A AV. DEPUTADO EMÍLIO CARLOS E AV. INAJAR DESOUZA;;VILA NOVA CACHOERINHA;MARIA HELENA PEREIRA FONTES;PARTIDO LIBERAL;-23.47591;-46.66979
134;IND;;135;1997;;A SECRETARIA DAS VIAS PUBLICAS;ASFATAMENTO;RUA RAFAEL PORTANE;;CAMPO LIMPO;VICENTE CANDIDO DA SILVA;PARTIDO DOS TRABALHADORES;-23.64915;-46.7802999
135;IND;;136;1997;;SECRETARIO DE TRANSPORTES;RECOLOCADAS AS PLACAS;RUA CERRO CORÁ, ALT. DO 770;;LAPA;BRUNO FEDER NETO;PARTIDO PROGRESSISTA BRASILEIRO;-23.5400877;-46.7047131
136;IND;;137;1997;;SECRETARIO MUNICIPAL DE TRANSPORTES;RECOLOCADAS AS PLACAS NA REGIÃO;RUA CARLOS WEBER;;;BRUNO FEDER NETO;PARTIDO PROGRESSISTA BRASILEIRO;-23.52807;-46.7303
137;IND;;138;1997;;SECRETARIO DE SEGURANÇA PUBLICA;AÇÃO DE PATRULHAMENTO;RUA CERRO CORÁ;;ALTA DA LAPA;BRUNO FEDER NETO;PARTIDO PROGRESSISTA BRASILEIRO;-23.54001;-46.7049499
138;IND;;139;1997;;AO SR. SEGURANÇA PUBLICA DO EST. DE S.P;EFETIVA AÇÃO DE PATRULHAMENTO;RUAS CARLOS WEBWR, SCHILLING, PAULO FRANCO, CAMPOGRANDE, PASSO DA PATRIA;;LAPA;BRUNO FEDER NETO;PARTIDO PROGRESSISTA BRASILEIRO;-23.75902;-46.37919
139;IND;;140;1997;;PMSP;RECAPEAMENTO;NA RUA CLEMENTE ALVARES;;LAPA;BRUNO FEDER NETO;PARTIDO PROGRESSISTA BRASILEIRO;-23.5201;-46.70538
140;IND;;141;1997;;PMSP;SERVIÇO TAPA-BURACO;RUA CARLOS WEBER;;LAPA;BRUNO FEDER NETO;PARTIDO PROGRESSISTA BRASILEIRO;-23.52807;-46.7303
141;IND;;142;1997;;PMSP;SERVIÇOS DE TAPA-BURACO;RUA CERRO CORÁ;;LAPA;BRUNO FEDER NETO;PARTIDO PROGRESSISTA BRASILEIRO;-23.53556;-46.71117
142;IND;;143;1997;;PMSP;PAVIMENTAÇÃO;AV.GONÇALVES DA COSTA;;VILA CARRÃO;MARIA HELENA PEREIRA FONTES;PARTIDO LIBERAL;-23.61128;-46.45211
143;IND;;144;1997;;PMSP;CANALIZAÇÃO DO CORREGO CAGUAÇU;JARDIM DA CONQUISTA;;VILA CARRÃO;MARIA HELENA PEREIRA FONTES;PARTIDO LIBERAL;-23.6086199;-46.44794
144;IND;;145;1997;;PMSP;ASSENTAMENTO COOPERATIVO DE 1350 FAMÍLIAS DE BAIXARENDA;RUA SILVEIRA MARTINS 70/701_INCRA 638.358.017.051/8;;DISTRITO DE PERUS;ANTONIO GOULART DOS REIS;PARTIDO SOCIAL DEMOCRATICO;;
145;IND;;146;1997;;PMSP;COLOCAÇÃO DE PLACAS DE DENOMINAÇÃO DE RUA;JD. ELIANE;;JD. ELIANE;VICENTE BENEDITO VISCOME;PARTIDO PROGRESSISTA BRASILEIRO;-23.55548;-46.50366
146;IND;;147;1997;;PMSP;IMPLANTAÇÃO DE LOMBADAS;RUA ARUMARANA;;JD. ELIANE;VICENTE BENEDITO VISCOME;PARTIDO PROGRESSISTA BRASILEIRO;-23.55529;-46.5043
147;IND;;148;1997;;PMSP;IMPLANTAÇÃO DE LOMBADAS;RUA ALPISTE;;JD. ELIANE;VICENTE BENEDITO VISCOME;PARTIDO PROGRESSISTA BRASILEIRO;-23.55621;-46.50298
148;IND;;149;1997;;PMSP;IMPLANTAÇÃO DE LOMBADAS;RUA CAMALOTILHO;;JD. ELIANE;VICENTE BENEDITO VISCOME;PARTIDO PROGRESSISTA BRASILEIRO;-23.55683;-46.5045
149;IND;;150;1997;;PMSP;IMPLANTAÇÃO DE LOMBADAS;RUA SANTO HONORATO;;VILA ISOLINA MAZZEI;VICENTE BENEDITO VISCOME;PARTIDO PROGRESSISTA BRASILEIRO;-23.49571;-46.60108
150;IND;;151;1997;;PMSP;NIVELAMENTO E CASCALHAMENTO;RUA PADRE LUIS DE SIQUEIRA;;JD.RODOLFO PIRANI;VICENTE BENEDITO VISCOME;PARTIDO PROGRESSISTA BRASILEIRO;-23.62971;-46.46112
151;IND;;152;1997;;PMSP;LIMPAR BOCA DE LOBO;MERCADO MUNICIPAL, NAS QUATRO ESQUINAS;;PARQUE DOM PEDRO II;JOSE IVO MORGANTI LEITE;PART.DO MOVIMENTO DEMOCRATICO BRASILEIRO;-23.5431823;-46.6293127
152;IND;;153;1997;;PMSP;RETIRADA DE ENTULHO;MERCADO MUNICIPAL, NAS QUATRO ESQUINAS;;OARQUE DOM PEDRO II;JOSE IVO MORGANTI LEITE;PART.DO MOVIMENTO DEMOCRATICO BRASILEIRO;;
153;IND;;154;1997;;PMSP;INSTALAÇÃO DE SEMÁFOROS;AV. DIEDERICHSEN COM AV. LEONARDO DA VINCI;;VILA GUARANI;JOSE IVO MORGANTI LEITE;PART.DO MOVIMENTO DEMOCRATICO BRASILEIRO;-23.63644;-46.6381
154;IND;;155;1997;;PMSP;COLOCAÇÃO DE REDUTORES DE VELOCIDADE;AV. DIEDERICHSEN HÁ RACHAS COM FREQUÊNCIA AOSSABADOS;;VILA GUARANI;JOSE IVO MORGANTI LEITE;PART.DO MOVIMENTO DEMOCRATICO BRASILEIRO;-23.63279;-46.63926
155;IND;;156;1997;;PMSP;DUPLICAR E ASFALTAR -;ESTRADA DAS TRÊS CRUZES;;JD. JOANA D ARC;JOSE IVO MORGANTI LEITE;PART.DO MOVIMENTO DEMOCRATICO BRASILEIRO;-23.55918;-46.58788
156;IND;;157;1997;;PMSP;ABERTURA DE DUAS RUAS SOBRE O JD. DO VALE DEANHANGABAU, LIGANDO A AV. S. JOÃO E ARUA LIBERO;VALE DO ANHANGABAU;;CENTRO;JOSE IVO MORGANTI LEITE;PART.DO MOVIMENTO DEMOCRATICO BRASILEIRO;-23.54613;-46.63664
157;IND;;158;1997;;PMSP;REBAIXAMENTO DE GUIA;RUA PAULO GONÇALVES, 208;;SANTANA;JOSE IVO MORGANTI LEITE;PART.DO MOVIMENTO DEMOCRATICO BRASILEIRO;-23.4950699;-46.62761
158;IND;;159;1997;;PMSP;REMOÇÃO DE UMA ARVORE, EM FRENTE A UMA GARAGEM;RUA PAULO GONÇALVES, 208;;SANTANA;JOSE IVO MORGANTI LEITE;PART.DO MOVIMENTO DEMOCRATICO BRASILEIRO;-23.4950699;-46.62761
159;IND;;160;1997;;PMSP;INSTALAÇÃO DE UM SEMAFORO;RUA ANTONIO RAMOS ROSA, EM FRENTE A UMA ESCOLA, ALTURA DO N. 100;CL;JD SÃO LUIS;JOSE IVO MORGANTI LEITE;PART.DO MOVIMENTO DEMOCRATICO BRASILEIRO;-23.66039;-46.74679
160;IND;;161;1997;;PMSP;PODAR GALHO DE ARVORE;RUA PEDROSO ALVARENGA, 120;PI;ITAIM BIBI;JOSE IVO MORGANTI LEITE;PART.DO MOVIMENTO DEMOCRATICO BRASILEIRO;-23.5800283;-46.6717006
161;IND;;162;1997;;PMSP;TAPAR BURACOS;RUA MARIO DIAS, 104;BT;V SONIA;JOSE IVO MORGANTI LEITE;PART.DO MOVIMENTO DEMOCRATICO BRASILEIRO;-23.5887668;-46.7298606
162;IND;;163;1997;;PMSP;INSTALAÇÃO DE UM SEMAFORO;RUA EVOLUÇÃO ESQUINA COM RUA SIMÃO LOPES;VM;V MORAES;JOSE IVO MORGANTI LEITE;PART.DO MOVIMENTO DEMOCRATICO BRASILEIRO;-23.6347;-46.61272
163;IND;;164;1997;;PMSP;DENOMINAR LOGRADOURO PUBLICO AINDA INOMIMNADO COMO NOME DE VICENTE MATHEUS;REGIAO LESTE;;;ANTONIO GOULART DOS REIS;PARTIDO SOCIAL DEMOCRATICO;-23.47814;-46.59657
164;IND;;165;1997;;PMSP;INSTALAÇÃO DE REDUTORES DE VELOCIDADE;RUA BENTO DE ANDRADE, NA ALTURA DO N. 615;PI;V PRIMAVERA;HANNA GHARIB;PARTIDO PROGRESSISTA BRASILEIRO;-23.5844099;-46.66868
165;IND;;166;1997;;PMSP;CONSTRUÇÃO DE UM RAMAL DE GALERIA DE AGUAS PLUVIAIS;RUA ALBUQUERQUE LINS COM A RUA BARRA FUNDA;SE;;HANNA GHARIB;PARTIDO PROGRESSISTA BRASILEIRO;-23.5325;-46.6541
166;IND;;167;1997;;PMSP;CONSTRUÇÃO DE SARJETÃO DE CONCRETONA ESQUINA;RUA BRIGADEIRO GALVÃO COM A AV. ANGELICA;SE;;HANNA GHARIB;PARTIDO PROGRESSISTA BRASILEIRO;-23.55162;-46.66064
167;IND;;168;1997;;PMSP;INSTALAÇÃO DE REDUTORES DE VELOCIDADE;RUA PE JOÃO GUALBERTO;FO;;HANNA GHARIB;PARTIDO PROGRESSISTA BRASILEIRO;-23.49111;-46.65188
168;IND;;169;1997;;PMSP;PAVIMENTAÇÃO;RUA RIO ITAPIÇU;FO;JD PERY;HANNA GHARIB;PARTIDO PROGRESSISTA BRASILEIRO;-23.46131;-46.66516
169;IND;;170;1997;;TELESP;INSTALAÇÃO DE TELEFONE COMUNITARIO;RUA MARIA FONTES, ALTURA DO N. 146;FO;V.N.CACHOEIRINHA;HANNA GHARIB;PARTIDO PROGRESSISTA BRASILEIRO;-23.4564655;-46.6579611
170;IND;;171;1997;;TELESP;INSTALAÇÃO DE TELEFONE COMUNITARIO;RUA NOVA GUATAPORANGA, ATLRUA DO N. 24;FO;JD JOSE MARIA;HANNA GHARIB;PARTIDO PROGRESSISTA BRASILEIRO;-23.4531;-46.7151
171;IND;;172;1997;;TELESP;INSTALAÇÃO DE TELEFONE COMUNITARIO OU PUBLICO;RUA MIGUEL PEREIRA LANDIM, ALTURA DO N. 646;;JD JARAGUA;HANNA GHARIB;PARTIDO PROGRESSISTA BRASILEIRO;-23.48952;-46.75891
172;IND;;173;1997;;PMSP;RECAPEAMENTO ASFALTICO;RUA MINISTRO LINS DE BARROS;FO;JD STA CRUZ;HANNA GHARIB;PARTIDO PROGRESSISTA BRASILEIRO;-23.45937;-46.66669
173;IND;;174;1997;;PMSP;CONCESSÃO ADMINISTRATIVA DE USO POR PRAZO DILATADO;ESTADIO PAULO MACHADO DE CARVALHO E DAS INSTALAÇÕ-ES ESPORTIVAS QUE LHE SÃO ANEXAS PARA O SPORT CLUBCORINTHIANS PAULISTA;;;JOSE IZAR;PARTIDO DA FRENTE LIBERAL;;
174;IND;;175;1997;;PMSP;"TORNAR EFETIVA A COLETA E APROVEITAMENTO DO ""LIXORECICLAVEL""";;;;OSVALDO ENEAS NANTES SOARES;PART. DE REEDIFICACAO DA ORDEM NACIONAL;;
175;IND;;176;1997;;PMSP;VIADUTO SOBRE LINHA DE TREM DA RFFSA;RUA MONSENHOR ANDRADE;SE;BRAS;MOHAMAD SAID MOURAD;PARTIDO LIBERAL;-23.54248;-46.62174
176;IND;;177;1997;;GOVERNO DO ESTADO;MANTIDO E AMPLIADO O PROGRAMA DE DISTRIBUIÇÃO DELEITE AS PESSOAS CARENTES DESENVOLVIDO P/SECRETARI;;;;ANTONIO SALIM CURIATI JUNIOR;PARTIDO PROGRESSISTA BRASILEIRO;;
177;IND;;178;1997;;SR. SECRETARIO DA SAUDE DO ESTADO SP;CONSTRUÇÃO DE UM POSTO DE SAUDE;RUA ANTONIO DE FRANÇA HORTA;;JD ANTARTICA II;ANTONIO SALIM CURIATI JUNIOR;PARTIDO PROGRESSISTA BRASILEIRO;-23.4577;-46.65789
178;IND;;179;1997;;PMSP;REINTEGRAÇÃO DE POSSE CONTRA OS IMOVEIS QUE INVADIRAM O LEITO DO CORREGO;RUA MATEUS MASCARENHAS;;JD PEREIRA LEITE;JOSE VIVIANI FERRAZ;PARTIDO LIBERAL;-23.5069;-46.676
179;IND;;180;1997;;PMSP;PAVIMENTEAÇÃO;RUA JACINTO MEDEIA;FO;;HANNA GHARIB;PARTIDO PROGRESSISTA BRASILEIRO;-23.45337;-46.72878
180;IND;;181;1997;;PMSP;TAPAR BURACO;RUA PIRAI ALT. DO 400;;ALTO DA LAPA;JOSE IVO MORGANTI LEITE;PART.DO MOVIMENTO DEMOCRATICO BRASILEIRO;-23.5314096;-46.7113199
181;IND;;182;1997;;PMSP;TAPAR BURACO;RUA URBANIZADORA, 35;;PERDIZES;JOSE IVO MORGANTI LEITE;PART.DO MOVIMENTO DEMOCRATICO BRASILEIRO;-23.54125;-46.6791
182;IND;;183;1997;;PMSP;REDUTOR DE VELOCIDADE;RUA URBANIZADA, PROXIMA AO 232;;PERDIZES;JOSE IVO MORGANTI LEITE;PART.DO MOVIMENTO DEMOCRATICO BRASILEIRO;-23.54087;-46.68053
183;IND;;184;1997;;SR. SECRETARIO DE VIAS PUBLICA;CONSTRUÇÃO DE UMA GALERIA PARA CAPTAÇÃO DE ÁGUASPLUVIAIS;NA TRAVESSA TORRES;;MOINHO VELHO;JOSE VIVIANI FERRAZ;PARTIDO LIBERAL;-23.49677;-46.70535
184;IND;;185;1997;;PMSP;LIMPEZA DE BUEIROS;PRAÇA FLORIANO PEIXO;;SANTO AMARO;NATALICIO BEZERRA SILVA;PARTIDO TRABALHISTA BRASILEIRO;-23.6520699;-46.70753
185;IND;;186;1997;;PMSP;PROVIDENCIAR LIBERAÇÃO DA LINHA SANTANA;;FO;FREGUESIA DO O;JOSE VIVIANI FERRAZ;PARTIDO LIBERAL;;
186;IND;;187;1997;;PMSP;LIBERAÇÃO DA LINHA SANTANA;AV. FRANCISCO MATARAZZO NA AGUA BRANCA EM FRENTE AO SHOPPING WEST PLAZA;FO;FREGUESIA DO O;JOSE VIVIANI FERRAZ;PARTIDO LIBERAL;-23.52571;-46.68003
187;IND;;188;1997;;CET;PROVIDENCIAR A IMPLANTAÇÃO DE LOMBADAS;RUA PADRE FELICIANO DOMINGUES;;V IORIO;JOSE VIVIANI FERRAZ;PARTIDO LIBERAL;-23.48295;-46.70483
188;IND;;189;1997;;PMSP;COLOCAÇÃO DE LOMBADAS;RUA ERASTÓSTENES AZEVEDO, ALT. DOS NUMEROS 138,229 E 256, NO JARDIM SÃO JOSE;;JD. SÃO JOSÉ;PAULO JESUS FRANGE;PARTIDO TRABALHISTA BRASILEIRO;-23.4862499;-46.7136799
189;IND;;190;1997;;PMSP;LIMPEZA E DESOBSTRUÇÃO DE BUEIROS;ELEVADO PRESIDENTE ARTHUR DA COSTA E SILVA;;SANTA CECILIA¨;VICENTE BENEDITO VISCOME;PARTIDO PROGRESSISTA BRASILEIRO;-23.53726;-46.64933
190;IND;;191;1997;;AO SECRETARIO DE VIAS PUBLICAS MUNICIPAL;PAVIMENTAÇÃO ASFÁLTICA;RUA A, RUA B, RUA C TRAVESSA DA RUA PRINCIPAL, LO-CALIZADOS NO GUIA NA PAGIMA 385 XT E X24PARADA DE TAIPAS;;JD. DONÁRIA;JOSE VIVIANI FERRAZ;PARTIDO LIBERAL;;
191;IND;;192;1997;;PMSP;CORTAR GRAMA;PRAÇA LAUDO NARTEL;;MORUMBI;JOSE IVO MORGANTI LEITE;PART.DO MOVIMENTO DEMOCRATICO BRASILEIRO;;
192;IND;;193;1997;;PMSP;PODAR A GRAMA;ACESSO PONTE CIDADE JARDIM;;PINHEIROS;JOSE IVO MORGANTI LEITE;PART.DO MOVIMENTO DEMOCRATICO BRASILEIRO;-23.58307;-46.68638
193;IND;;194;1997;;PMSP;RECAPEAR AVENIDA;AV. DOM VILARES;;VILA DAS MERCÊS;JOSE IVO MORGANTI LEITE;PART.DO MOVIMENTO DEMOCRATICO BRASILEIRO;;
194;IND;;195;1997;;PMSP;CORTAR A GRAMA;RUA BARÃO DE JAPURÁ;;VILA GUARANI;JOSE IVO MORGANTI LEITE;PART.DO MOVIMENTO DEMOCRATICO BRASILEIRO;-23.6376199;-46.63788
195;IND;;196;1997;;PMSP;LIMPAR BOCA DE LOBO;TODA A PRAÇA PANAMERICANA;;ALTO DE PINHEIROS;JOSE IVO MORGANTI LEITE;PART.DO MOVIMENTO DEMOCRATICO BRASILEIRO;-23.55366;-46.708
196;IND;;197;1997;;PMSP;LIMPAR BOCA DE LOBO;AV. CHIBARÁS;;MOEMA;JOSE IVO MORGANTI LEITE;PART.DO MOVIMENTO DEMOCRATICO BRASILEIRO;-23.60714;-46.65366
197;IND;;198;1997;;AO SR. SECRETARIO MUNICIPAL DAS ADM REG.;IMPLANTAÇÃO DE UMA GALERIA PARA CAPTAÇÃO DAS AGUASPLUVIAIS;RUA ANTONIO DE AZEVEDO;;;JOSE VIVIANI FERRAZ;PARTIDO LIBERAL;-23.46402;-46.67367
198;IND;;199;1997;;PRESIDENTE DA CET;ABERTURA NA ESQUINA DA RUA MIGUEL CASAGRANDE COMA AV. MARGINAL;RUA MIGUEL CASAGRANDE COM A AV. MARGINAL;;FREGUESIA DO O;JOSE VIVIANI FERRAZ;PARTIDO LIBERAL;-23.50704;-46.68998
199;IND;;200;1997;;SECRETARIO MUNICIPAL DE ESPORTES, LAZER;CONSTUÇÃO DE MURO AO REDOR DO C.D.M.;RUA ENGENHEIRO ALBERTO MEYER ESQUINA COM A RUAPAIS DO NASCIMENTO;;PARQUE S. LUIS;JOSE VIVIANI FERRAZ;PARTIDO LIBERAL;-23.48078;-46.68842
200;IND;;201;1997;;PMSP;CONSTRUÇÃO DE UMA CRECHE;AV. MARGINAL;;PIQUERI;JOSE VIVIANI FERRAZ;PARTIDO LIBERAL;-23.65979;-46.71614
201;IND;;202;1997;;A TELESP;ANTENA TRANSMISSORA;AV. CANTÍDIO SAMPAIO NA ALT. DO 2.600;;;JOSE VIVIANI FERRAZ;PARTIDO LIBERAL;-23.4591517;-46.6867483
202;IND;;203;1997;;PMSP;REFORÇO NA ILUMINAÇÃO PUBLICA;RUA GINO MONELLI;;VILA PRUDENTE;VICENTE BENEDITO VISCOME;PARTIDO PROGRESSISTA BRASILEIRO;-23.57754;-46.5852
203;IND;;204;1997;;PMSP;CONSTRUÇÃO ÁREA DE LAZER;RUA BOA FAMILIA;;JD. TIETE;VICENTE BENEDITO VISCOME;PARTIDO PROGRESSISTA BRASILEIRO;-23.60157;-46.49635
204;IND;;205;1997;;PMSP;LIMPEZA DE PRAÇA;RUA BOA FAMILIA;;JD. TIETE;VICENTE BENEDITO VISCOME;PARTIDO PROGRESSISTA BRASILEIRO;-23.60157;-46.49635
205;IND;;206;1997;;PMSP;CANALIZAÇÃO DO CORREGO;RUA BOA FAMILIA;;JD. TIETE;VICENTE BENEDITO VISCOME;PARTIDO PROGRESSISTA BRASILEIRO;-23.60157;-46.49635
206;IND;;207;1997;;PMSP;LIMPEZA DO CORREGO;RUA BOA FAMILIA;;JD. TIETE;VICENTE BENEDITO VISCOME;PARTIDO PROGRESSISTA BRASILEIRO;-23.60157;-46.49635
207;IND;;208;1997;;PMSP;RECIPIENTES APROPRIADOS P/ COLETA DE LIXO RECICLA-VEL;PRÉDIOS OCUPADOS POR ORGÃOS MUNICIPAIS E NAS PRIN-CIPAIS VIAS PUBLICAS;;;JOSE IZAR;PARTIDO DA FRENTE LIBERAL;;
208;IND;;209;1997;;PMSP;RETIRADA DE UMA ÁRVORE;RUA OTONIEL MOTTA ESQUINA COM AV. BRIGADEIRO LUIZANTONIO;;JD. PASULISTA;JOSE IVO MORGANTI LEITE;PART.DO MOVIMENTO DEMOCRATICO BRASILEIRO;;
209;IND;;210;1997;;PMSP;TAPAR BURACOS;RUA MANOEL PINTO DE CARVALHO;;LIMÃO;JOSE IVO MORGANTI LEITE;PART.DO MOVIMENTO DEMOCRATICO BRASILEIRO;-23.50645;-46.68152
210;IND;;211;1997;;PMSP;ARRUMAR PARALELEPÍPEDOS;RUA NIGÉRIA;;VILA OLIMPIA;JOSE IVO MORGANTI LEITE;PART.DO MOVIMENTO DEMOCRATICO BRASILEIRO;-23.58058;-46.75955
211;IND;;212;1997;;PMSP;LIMPAR BOCA DE LOBO;RUA DR. OSCAR MONTEIRO DE BARROS;;VILA ANDRADE;JOSE IVO MORGANTI LEITE;PART.DO MOVIMENTO DEMOCRATICO BRASILEIRO;-23.61773;-46.73442
212;IND;;213;1997;;PMSP;RECAPEAR TODA A RUA;RUA DOS PAULISTANOS;;VILA PAULISTA;JOSE IVO MORGANTI LEITE;PART.DO MOVIMENTO DEMOCRATICO BRASILEIRO;-23.64445;-46.66249
213;IND;;214;1997;;PMSP;ASFALTAR A RUA PAUDALHOS E VIELA 19 NA CHACARASANTA MARIA;CHACARA SANTA MARIA;;SANTO AMARO;JOSE IVO MORGANTI LEITE;PART.DO MOVIMENTO DEMOCRATICO BRASILEIRO;-23.65482;-46.71361
214;IND;;215;1997;;PMSP;PODAR A GRAMA;ENTRADA E SAÍDA DO TUNEL DA AV. NOVE DE JULHO;;JD. PAULISTA;JOSE IVO MORGANTI LEITE;PART.DO MOVIMENTO DEMOCRATICO BRASILEIRO;-23.56702;-46.65912
215;IND;;216;1997;;PMSP;TAPAR BURACOS;RUA PINTASSILGO ESQUINA COM A RUA COTOVIAS;;MOEMA;JOSE IVO MORGANTI LEITE;PART.DO MOVIMENTO DEMOCRATICO BRASILEIRO;;
216;IND;;217;1997;;PMSP;RECAPEAR TODA A RUA;RUA BRASÍLIA;;ITAIM BIBI;JOSE IVO MORGANTI LEITE;PART.DO MOVIMENTO DEMOCRATICO BRASILEIRO;-23.58306;-46.6723
217;IND;;218;1997;;PMSP;PODAR A GRAMA;PRAÇA LOPES DE AZEVEDO;;JD. GUEDALA;JOSE IVO MORGANTI LEITE;PART.DO MOVIMENTO DEMOCRATICO BRASILEIRO;-23.58393;-46.70421
218;IND;;219;1997;;PMSP;COLOCAÇÃO DE LOMBADA;RUA SILVÉRIO GONÇALVES;;SANTA MARIA;PAULO JESUS FRANGE;PARTIDO TRABALHISTA BRASILEIRO;-23.49184;-46.6785799
219;IND;;220;1997;;PMSP;CONSTRUÇÃO DE ESCADARIA HIDRÁULICA;RUAS JOAQUIM TEODORO TAVARES, ATL. 203 E 197 EMAGALHÃES LEMOS, ALT. 194 E 22-B;;PERUS;PAULO JESUS FRANGE;PARTIDO TRABALHISTA BRASILEIRO;-23.39848;-46.75068
220;IND;;221;1997;;PMSP;PAVIMENTAÇÃO;RUA GODOFREDO GONÇALVES;;LIMÃO;PAULO JESUS FRANGE;PARTIDO TRABALHISTA BRASILEIRO;-23.49764;-46.67678
221;IND;;222;1997;;PMSP;LIMPEZA DE TERRENO;AV. CLAVASIO ALVES DA SILVA, 677 ESQUINA COM A RUAALVARO SILVA;;LIMÃO;PAULO JESUS FRANGE;PARTIDO TRABALHISTA BRASILEIRO;-23.4975999;-46.67738
222;IND;;223;1997;;PMSP;EXECUTAR SERVIÇO DE LIMPEZA DO BUEIRO EXISTENTE NARUA ZAPARÁ;RUA ZAPARÁ, 53;;PINHEIROS;NELSON GUIMARAES PROENCA;PARTIDO DA SOCIAL DEMOCRACIA BRASILEIRA;-23.55866;-46.69272
223;IND;;224;1997;;PMSP;ESTABELECER PONTO DE TAXI CONFORME PROCESSO63.002.398-96-33;PRAÇA JULIO MESQUITA;;SÉ;MARIA HELENA PEREIRA FONTES;PARTIDO LIBERAL;-23.54072;-46.64251
224;IND;;225;1997;;PMSP;LIMPEZA DE ESCADA DE LIGAÇÃO;RUA EMBUIA;BT;BUTANTÃ;MARIA HELENA PEREIRA FONTES;PARTIDO LIBERAL;;
225;IND;;226;1997;;PMSP;RECOLHIMENTO DE LIXO ACUMULADO;RUA AMARANTE DE MARANHÃO;BT;BUTANTÃ;MARIA HELENA PEREIRA FONTES;PARTIDO LIBERAL;-23.56689;-46.76415
226;IND;;227;1997;;PMSP;REPARAÇÃO DO CALÇAMENTO;RUA CONCEIÇÃO DO RIO VERDE, ALTURA DO N. 195;PE;V BUENOS AIRES;MARIA HELENA PEREIRA FONTES;PARTIDO LIBERAL;-23.50956;-46.50993
227;IND;;228;1997;;PMSP;ASFALTAMENTO;RUA COMENDADOR STEFANI FOFE;BT;BUTANTÃ;MARIA HELENA PEREIRA FONTES;PARTIDO LIBERAL;-23.572;-46.58258
228;IND;;229;1997;;PMSP;LIMPEZA DE TERRENO DA ELETROPAULO;AV POLITECNICA (PERTO DA USP);BT;BUTANTÃ;MARIA HELENA PEREIRA FONTES;PARTIDO LIBERAL;-23.5558;-46.73738
229;IND;;230;1997;;PMSP;LIMPEZA DE TERRENO BALDIO;RUA JOAQUIM GOMES DE SOUZA, ALTURA DO N. 75;BT;JD PINHEIROS;MARIA HELENA PEREIRA FONTES;PARTIDO LIBERAL;-23.58142;-46.74476
230;IND;;231;1997;;PMSP;LIMPEZA E ILUMINAÇÃO DA PRAÇA;RUA CLEMENTINO E RUA FRANCISCO FERREIRA DA SILVA;;SANTANA;MARIA HELENA PEREIRA FONTES;PARTIDO LIBERAL;-23.48152;-46.62898
231;IND;;232;1997;;PMSP;RESTAURAÇÃO DO CALÇAMENTO DA AV. SEZEFREDO FAGUN-DES;ENTRE OS N. 13.336 A 19.058;FO;CACHOEIRINHA;MARIA HELENA PEREIRA FONTES;PARTIDO LIBERAL;-23.72329;-46.78938
232;IND;;233;1997;;PMSP;ESTUDO DE VIABILIDADE PARA CONCESSÃO DE PERMISSÃODE TRAFEGO EM CORREDORES EXCLUSIVOS DE ONIBUS;;;;ANTONIO GOULART DOS REIS;PARTIDO SOCIAL DEMOCRATICO;;
233;IND;;234;1997;;PMSP;REDUTORES DE VELOCIDADE (LOMBADAS);RUA PADRE LEONEL FRANÇA ALTURA DO N. 122;MO;;ARCHIBALDO FENICIO ZANCRA;PARTIDO LIBERAL;-23.5751586;-46.5771675
234;IND;;235;1997;;PMSP;CORTE DE MATO, PODA DE ARVORES E A LIMPEZA GERALPERIODICA DA PRAÇA;PÇA DA REPUBLICA;SE;;ARCHIBALDO FENICIO ZANCRA;PARTIDO LIBERAL;-23.54292;-46.64341
235;IND;;236;1997;;PMSP;EXECUÇÃO DE SERVIÇOS, REPAROS NAS SARGETAS;RUAS CARUVI COM A RUA CATUABA;VP;V ALPINA;ARCHIBALDO FENICIO ZANCRA;PARTIDO LIBERAL;-23.6018599;-46.56218
236;IND;;237;1997;;PMSP;REMOÇÃO DE ENTULHO PROVOCADO PELA QUEDA DE UM MURO;RUAS MARQUES DE SANTO AMARO COM A RUA JUSTINIANO;VP;V ALPINA;ARCHIBALDO FENICIO ZANCRA;PARTIDO LIBERAL;-23.60494;-46.5667199
237;IND;;238;1997;;PMSP;RECAPEAMENTO;RUA BARÃO DE TRAMANDAI;VP;V ALPINA;ARCHIBALDO FENICIO ZANCRA;PARTIDO LIBERAL;-23.60061;-46.56275
238;IND;;239;1997;;PMSP;SERVIÇO DE TAPA BURACOS E A REMOÇÃO DE ENTULHO;RUA VISCONDE DE ALCANTARA;VP;V ALPINA;ARCHIBALDO FENICIO ZANCRA;PARTIDO LIBERAL;-23.60363;-46.56706
239;IND;;240;1997;;PMSP;SERVIÇO DE TAPA BURACOS E A REMOÇÃO DE ENTULHO;RUA BARÃO DE TRAMANDAI;VP;V ALPINA;ARCHIBALDO FENICIO ZANCRA;PARTIDO LIBERAL;-23.60061;-46.56275
240;IND;;241;1997;;PMSP;TAPA BURACOS E A REMOÇÃO DE ENTULHO;RUA BARÃO DE ITAPOÃ;VP;V ALPINA;ARCHIBALDO FENICIO ZANCRA;PARTIDO LIBERAL;-23.60378;-46.56652
241;IND;;242;1997;;PMSP;SERVIÇO DE TAPA BURACOS E A REMOÇÃO DE ENTULHO;RUA IGUARA;VP;V ALPINA;ARCHIBALDO FENICIO ZANCRA;PARTIDO LIBERAL;-23.59547;-46.55668
242;IND;;243;1997;;PMSP;SOLUCIONAR OS PROBLEMAS DE MAU CHEIRO NO ESGOTO;RUA ALDEIA DOS INDIOS;VP;CHACARA BELENZINHO;ARCHIBALDO FENICIO ZANCRA;PARTIDO LIBERAL;-23.57839;-46.55073
243;IND;;244;1997;;PMSP;PLEITEIAM LUMINARIA;RUA GENOVA, 200;VP;PQ BANCARIO;ARCHIBALDO FENICIO ZANCRA;PARTIDO LIBERAL;-23.4618499;-46.60927
244;IND;;245;1997;;PMSP;INSTALAÇÃO DE REDUTORES DE VELOCIDADE;RUA AMERICO ALVES ALTURA DO N. 280;VP;JD CATARINA;ARCHIBALDO FENICIO ZANCRA;PARTIDO LIBERAL;-23.5848;-46.51464
245;IND;;246;1997;;PMSP;INSTALAÇÃO DE REDUTORES DE VELOCIDADE;RUA BORBELA, ALTURA DO N. 129;VP;JD CATARINA;ARCHIBALDO FENICIO ZANCRA;PARTIDO LIBERAL;-23.5854399;-46.51449
246;IND;;247;1997;;PMSP;INSTALAÇÃO DE REDUTORES DE VELOCIDADE;RUA MARIO AUGUSTO DE CARMO, ALTURA DOS N. 106, 232E 353;VP;JD AVELINO;ARCHIBALDO FENICIO ZANCRA;PARTIDO LIBERAL;-23.58596;-46.57182
247;IND;;248;1997;;PMSP;LIMPEZA E CORTE DO MATO;RUAS MARIO RODRIGUES E PADRE PEDRO MAGNONI(PRAÇA ALBERICO GENTILE);VP;V ELMA;ARCHIBALDO FENICIO ZANCRA;PARTIDO LIBERAL;;
248;IND;;249;1997;;PMSP;LIMPEZA E CANALIZAÇÃO DO CÓRREGO BELA VISTA;AV JACINTO MENEZES PALHARES E AV BRUMADO DE MINAS;VP;JD INDEPENDENCIA;ARCHIBALDO FENICIO ZANCRA;PARTIDO LIBERAL;-23.58746;-46.56419
249;IND;;250;1997;;PMSP;CONSTRUÇÃO DE LOMBADA;RUA ASSUPA, ALTURA DO N. 200;VP;V PRUDENTE;ARCHIBALDO FENICIO ZANCRA;PARTIDO LIBERAL;-23.5794698;-46.5766829
250;IND;;251;1997;;PMSP;MAIS BOCAS DE LOBO;RUA SAVIGNI;VP;V ALPINA;ARCHIBALDO FENICIO ZANCRA;PARTIDO LIBERAL;-23.6;-46.5668999
251;IND;;252;1997;;PMSP;PAVIMENTAÇÃO;RUA TAVARES BASTOS ATÉ A RUA RIBEIRO DE BARROS;LA;POMPEIA;PAULO JESUS FRANGE;PARTIDO TRABALHISTA BRASILEIRO;-23.53008;-46.69175
252;IND;;253;1997;;PMSP;DOTAR CADA CEMITERIO MUNICIPAL DE UM VELORIO;;;;JOSE IVO MORGANTI LEITE;PART.DO MOVIMENTO DEMOCRATICO BRASILEIRO;;
253;IND;;254;1997;;PMSP;VEICULOS DO SERVIÇO DE TAXI DA CIDADE O LIVRE TRANSITO NOS CORREDORES EXCLUSIVOS DO TRANSP. COLETIVO;;;;JOSE IVO MORGANTI LEITE;PART.DO MOVIMENTO DEMOCRATICO BRASILEIRO;;
254;IND;;255;1997;;PMSP;PROVIDENCIAR A LIBERAÇÃO DE VERBA PARA CANALIZARA VIELA 28;CANALIZAR A VIELA 28;;JD ANTARTICA;JOSE VIVIANI FERRAZ;PARTIDO LIBERAL;-23.52738;-46.67371
255;IND;;256;1997;;SECRETARIO DA HABITAÇÃO E DESENV. URBANO;CORREGO AGUA PRETA SERA CANALIZADO E A FAVELA TERÁQUE SER REMOVIDA;RUA OLIVEIRA MARTINS PROXIMO A PRAÇA JOÃO JOSÉ DEAGUIAR;;;JOSE VIVIANI FERRAZ;PARTIDO LIBERAL;;
256;IND;;257;1997;;SECRETARIO DA CULTURA;PROVIDENCIAR A INSTALAÇÃO DE UM CENTRO CULTURAL NOBAIRRO DE PIRITUBA;BAIRRO DE PIRITUBA;;;JOSE VIVIANI FERRAZ;PARTIDO LIBERAL;-23.46625;-46.7235
257;IND;;258;1997;;PMSP;LOMBADA;RUA PROF. JOSE CAETANO DOS SANTOS MASCARENHAS;VP;JD TIETE;VICENTE BENEDITO VISCOME;PARTIDO PROGRESSISTA BRASILEIRO;-23.59868;-46.49104
258;IND;;259;1997;;PMSP;COLETORA DE LIXO;RUA CLÓVIS MONTEIRO CARVALHO JUNIOR;;JD. TIETE;VICENTE BENEDITO VISCOME;PARTIDO PROGRESSISTA BRASILEIRO;-23.59554;-46.49255
259;IND;;260;1997;;PMSP;COLETORA DE LIXO;VIELA 20 DA RUA DR. MARIO SCAFF;;JD. TIETE;VICENTE BENEDITO VISCOME;PARTIDO PROGRESSISTA BRASILEIRO;-23.5959499;-46.49321
260;IND;;261;1997;;PMSP;REMOÇÃO DE LIXO E DESRATIÇÃO DE TERRENO;RUA COMANDANTE GUALBERTO, 156;;JD. TREMEMBÉ;MARIA HELENA PEREIRA FONTES;PARTIDO LIBERAL;-23.47197;-46.60544
261;IND;;262;1997;;PMSP;ILUMINAÇÃO DE VIA PUBLICA;RUA ARATANGI;;CACHOEIRINHA;MARIA HELENA PEREIRA FONTES;PARTIDO LIBERAL;-23.4741;-46.66132
262;IND;;263;1997;;PMSP;LIMPEZA DE PARQUE EM ESTADO DE ABANDONO;RUA AVANHANDAVA NA PASSAGEM PARA A RUA FREI CANECA;;BELA VISTA;MARIA HELENA PEREIRA FONTES;PARTIDO LIBERAL;-23.55291;-46.64923
263;IND;;264;1997;;PMSP;REPAROS NO CALÇAMENTO;RUA CLARA FERNANDES COM AV. MONTE CELESTE;;VILA SANTA MARIA;MARIA HELENA PEREIRA FONTES;PARTIDO LIBERAL;-23.49222;-46.67407
264;IND;;265;1997;;PMSP;REPARAÇÃO DE CALÇADAS DE PUBLICA;AV. PENHA BRASIL, NA ALT. DO 2651;;VILA DIONÍSIA;MARIA HELENA PEREIRA FONTES;PARTIDO LIBERAL;-23.4505181;-46.6772783
265;IND;;266;1997;;PMSP;RECAPEAMENTO DE VIA PUBLICA;RUA DOS PATINS;;VILA NOVA CACHOERINHA;MARIA HELENA PEREIRA FONTES;PARTIDO LIBERAL;-23.47246;-46.6602
266;IND;;267;1997;;PMSP;LIMPEZA;RUA ANTONIO PIRES AO LADO DA RESIDENCIA DE 411;;VILA ALBERTINA;PAULO JESUS FRANGE;PARTIDO TRABALHISTA BRASILEIRO;-23.49953;-46.69206
267;IND;;268;1997;;PMSP;RECOSNTRUÇÃO DE LOMBADAS;RUA DR. ROQUE MARCHESE;;PARQUE S. PAULO;MARIO POERNER DIAS FERNANDES;DEMOCRATAS;-23.7399;-46.6941
268;IND;;269;1997;;PMSP;PAVIMENTAÇÃO ASFALTICA;RUA SIR CHARLES BARRY;;JD. TRÊS ESTRELAS;MARIO POERNER DIAS FERNANDES;DEMOCRATAS;-23.6726858;-46.7654352
269;IND;;270;1997;;PMSP;PAVIMENTAÇÃO ASFÁLTICA;RUA MARIO NIZZOLI;;JD. MODELO;MARIO POERNER DIAS FERNANDES;DEMOCRATAS;-23.6728;-46.76704
270;IND;;271;1997;;PMSP;IMPALTAÇÃO DE LOMBADA;RUA CALIL JORGE CALIXTO;;JD. CAMPO DE FORA;MARIO POERNER DIAS FERNANDES;DEMOCRATAS;-23.65786;-46.75754
271;IND;;272;1997;;PMSP;PAVIMENTAÇÃO ASFALTICA;RUA FÁBIO LUZ;;PARQUE DO LAGO;MARIO POERNER DIAS FERNANDES;DEMOCRATAS;-23.71718;-46.77977
272;IND;;273;1997;;PMSP;DESENTUPIMENTO DE BUEIROS;RUA DAS PEROBEIRAS;;CHACARA SANTA MARIA;MARIO POERNER DIAS FERNANDES;DEMOCRATAS;-23.6928899;-46.79563
273;IND;;274;1997;;PMSP;SERVIÇO TAPA-BURADOS;AV. MINISTRO MOACIR DO AMARAL SANTOS;;JD. DOM JOSÉ;MARIO POERNER DIAS FERNANDES;DEMOCRATAS;-23.67869;-46.79751
274;IND;;275;1997;;PMSP;CONSTRUÇÃO DE BOCAS-DE-LOBO;ENTROCAMENTO DAS AV. ALBERTO AUGUSTO ALVES,GIOVANNI GRONCHI E CARLOS CALDEIRA FILHO;;VILA ANDRADE;MARIO POERNER DIAS FERNANDES;DEMOCRATAS;;
275;IND;;276;1997;;PMSP;CONSTRUÇÃO DE BOCA-DE-LOBO;RUA ANDORINHA PEQUENA, ALT. 522;;JD. DOM JOSÉ;MARIO POERNER DIAS FERNANDES;DEMOCRATAS;-23.67577;-46.7978
276;IND;;277;1997;;PMSP;SERVIÇO TAPA-BURACO;RUAS ANUM BRANCO, ANDORINHA PEQUENA ALT. 301, 323,ACARI ESPADA;;JD. DOM JOSÉ;MARIO POERNER DIAS FERNANDES;DEMOCRATAS;-23.67649;-46.7983199
277;IND;;278;1997;;PMSP;LIMPEZA DE TERRENOS BALDIOS;AV. MINISTRO MOACIR AMARAL DOS SANTOS, LOTES 15-29-31-32-33;;JD. DOM JOSÉ;MARIO POERNER DIAS FERNANDES;DEMOCRATAS;;
278;IND;;279;1997;;PMSP;LIMPEZA DE TERRENOS BALDIOS;RUA ANDORINHA COLEIRA LOTES 30-34;;JD. DOM JOSÉ;MARIO POERNER DIAS FERNANDES;DEMOCRATAS;-23.6794705;-46.7970253
279;IND;;280;1997;;PMSP;LIMPEZA DE TERRENOS BALDIOS;RUA ANUN PRETO LOTES 01-02-06-09-10;;JD. DOM JOSÉ;MARIO POERNER DIAS FERNANDES;DEMOCRATAS;-23.67775;-46.79699
280;IND;;281;1997;;PMSP;PAVIMENTALÇÃO ASFÁLTICA;RUA DR. LUIS FERNANDO FERREIRA;;JD. DIONISIO;MARIO POERNER DIAS FERNANDES;DEMOCRATAS;-23.68352;-46.76793
281;IND;;282;1997;;PMSP;PAVIMENTAÇÃO ASFÁLTICA;RUA DAS UMBELÍFERAS;;PARQUE DO LAGO;MARIO POERNER DIAS FERNANDES;DEMOCRATAS;-23.71254;-46.7778
282;IND;;283;1997;;PMSP;ILUMINAÇÃO PUBLICA;ESCADARIA DE ACESSO - RUA DAS UMBELÍFERA E XAMBO-RÉS;;PARQUE DO LAGO;MARIO POERNER DIAS FERNANDES;DEMOCRATAS;-23.71254;-46.7778
283;IND;;284;1997;;AO SECRETARIO DE ESPORTES E LAZER;COLOCAÇÃO DE UMA TELA DE 60M X 6 DE ALT.;RUA RUI DE MORAIS APOCALIPSE, 129;;JD. DO TIRO;JOSE VIVIANI FERRAZ;PARTIDO LIBERAL;-23.47356;-46.68549
284;IND;;285;1997;;PMSP;CEDER EM COMODATO A ÁREA MUNICIPAL;RUA DAS USINAS ENTRE OS NUMEROS 619 E 633;;VILA PENTEADO;JOSE VIVIANI FERRAZ;PARTIDO LIBERAL;-23.4647399;-46.68501
285;IND;;286;1997;;PMSP;INSTALAÇÃO DE SEMAFORO;RUA PROF. CASTRO JUNIOR, ALT. 145;;VILA SABRINA;WADIH JORGE MUTRAN;PARTIDO DEMOCRATICO TRABALHISTA;-23.4941299;-46.57523
286;IND;;287;1997;;PMSP;TAPAR BURACOS;AV. DOMINGOS DE MORAES ESQUINA COM A RUA ESTELA;;VILA MARIANA;JOSE IVO MORGANTI LEITE;PART.DO MOVIMENTO DEMOCRATICO BRASILEIRO;-23.59189;-46.63609
287;IND;;288;1997;;PMSP¨;TAPAR BURACOS;RUA CEL. OSCAR PORTO ESQUINA COM A RUA MANUEL DANOBREGA;;VILA MARIANA;JOSE IVO MORGANTI LEITE;PART.DO MOVIMENTO DEMOCRATICO BRASILEIRO;-23.57218;-46.65184
288;IND;;289;1997;;PMSP;TAPAR BURACO;RUA CARDEAL ARCOVERDE COM A RUA GALENO DE ALMEIDA;;CERQUEIRA CESAR;JOSE IVO MORGANTI LEITE;PART.DO MOVIMENTO DEMOCRATICO BRASILEIRO;;
289;IND;;290;1997;;PMSP;TAPAR BURACOS;ALAMEDA CAS BRANCA ESQUINA COM RUA OSCAR FREIRE;;JD. PAULISTA;JOSE IVO MORGANTI LEITE;PART.DO MOVIMENTO DEMOCRATICO BRASILEIRO;-23.56577;-46.66598
290;IND;;291;1997;;PMSP;LIMPAR BOCA DE LOBO;ALAMEDA CASA BRANCA ESQUINA COM ALAMEDA FRANCA;;JD. PAULISTA;JOSE IVO MORGANTI LEITE;PART.DO MOVIMENTO DEMOCRATICO BRASILEIRO;-23.5661999;-46.66015
291;IND;;292;1997;;PMSP;TAPAR BURACO;RUA DELEGADO EWERTON ESQUINA COM AV. NOVE DE JULHO;SE;CENTRO;JOSE IVO MORGANTI LEITE;PART.DO MOVIMENTO DEMOCRATICO BRASILEIRO;;
292;IND;;293;1997;;PMSP;RECAPEAMENTO ASFALTICO;RUA DAS PEROBEIRAS;CL;CHACARA SANTA MARIA;MARIO POERNER DIAS FERNANDES;DEMOCRATAS;-23.6928899;-46.79563
293;IND;;294;1997;;PMSP;CONSTRUÇÃO DE CALÇADA NA AREA EXTERNA;RUA PAULINO GOTTSFRITZ, 50;CS;COLONIA;MARIO POERNER DIAS FERNANDES;DEMOCRATAS;-23.846;-46.69793
294;IND;;295;1997;;PMSP;RECAPEAMENTO ASFALTICO;PASSAGEM PARTICULAR A (TRAVESSA RUA BACIO DE FILI-CAIA;CL;JD KLEIN;MARIO POERNER DIAS FERNANDES;DEMOCRATAS;-23.68759;-46.79292
295;IND;;296;1997;;PMSP;REALIZAR NOVOS CONCURSOS PUBLICOS PARA INGRESSO DEPROFESSORES DE EDUCAÇÃO INFANTIL;;;;CARLOS ALBERTO PLETZ NEDER;PARTIDO DOS TRABALHADORES;;
296;IND;;297;1997;;PMSP;AUTORIZAR A NOMEAÇÃO DE DIRETORES, COORDENADORESPEDAGOCICOS E SUPERVISORES CONCURSADOS;;;;CARLOS ALBERTO PLETZ NEDER;PARTIDO DOS TRABALHADORES;;
297;IND;;298;1997;;PMSP;INSTALAÇÃO DE REDUTORES DE VELOCIDADE (LOMBADAS);RUA TOLSTOI DE CARVALHO;VP;SAPOPEMBA;ARCHIBALDO FENICIO ZANCRA;PARTIDO LIBERAL;-23.59774;-46.52522
298;IND;;299;1997;;PMSP;RECAPEAMENTO ASFALTICO;RUA HEITOR DE MORAES, ENTRE OS N. 840 E 978;LA;PACAEMBU;ARCHIBALDO FENICIO ZANCRA;PARTIDO LIBERAL;-23.5452371;-46.6705719
299;IND;;300;1997;;PMSP;TAPAR OS BURACOS NO CRUZAMENTO;RUAS DR. NOGUEIRA DE NORONHA E LEONARDO VILAS BOAS;VP;PQ SÃO LUCAS;ARCHIBALDO FENICIO ZANCRA;PARTIDO LIBERAL;-23.59655;-46.54637
300;IND;;301;1997;;PMSP;ILUMINAÇÃO PUBLICA;RUA BACABAS, ALTURA DO N. 101;VP;PQ SÃO LUCAS;ARCHIBALDO FENICIO ZANCRA;PARTIDO LIBERAL;-23.59919;-46.54548
301;IND;;302;1997;;PMSP;RECAPEAMENTO ASFALTICO;RUA ARTHUR LUIZ ADRIANO, ALTURA DO N. 229 DA RUACORONEL JOVINIANO BRANDÃO;VP;V PRUDENTE;ARCHIBALDO FENICIO ZANCRA;PARTIDO LIBERAL;-23.57415;-46.58601
302;IND;;303;1997;;PMSP;RECAPEAMENTO;TRAV VALENTIM JENAY;VP;V PRUDENTE;ARCHIBALDO FENICIO ZANCRA;PARTIDO LIBERAL;-23.58268;-46.5869
303;IND;;304;1997;;PMSP;DOIS BICOS DE LUZ NOS POSTES;FINAL DA TRAV. VALENTIM JENAY, LOCALIZADA NA ALTU-RA DO N. 3606 DA AV. PAES DE BARROS;VP;V PRUDENTE;ARCHIBALDO FENICIO ZANCRA;PARTIDO LIBERAL;;
304;IND;;305;1997;;PMSP;CONSERTO DA GRADE SOB O VIADUTO;VIADUTO DA AV. SALIM FARAH MALUF, PROXIMO A AV.VILA EMA;VP;VILA PRUDENTE;ARCHIBALDO FENICIO ZANCRA;PARTIDO LIBERAL;-23.58203;-46.5726299
305;IND;;306;1997;;PMSP;JUNTO AO IPREM VISANDO ALTERAR A REDAÇÃO DO PARA-GRAFO UNICO DO ARTIGO 6. DECRETO 21543 DE 31.10.85;;;;ANTONIO SALIM CURIATI JUNIOR;PARTIDO PROGRESSISTA BRASILEIRO;;
306;IND;;307;1997;;PMSP;REPARAÇÃO DO LEITO CARROÇAVEL;RUA 10 DE MAIO;FO;CACHOEIRINHA;MARIA HELENA PEREIRA FONTES;PARTIDO LIBERAL;;
307;IND;;308;1997;;PMSP;RECAPEAMENTO DE VIA PUBLICA;RUA ELA CRAUZE BOIM, 259;FO;CACHOEIRINHA;MARIA HELENA PEREIRA FONTES;PARTIDO LIBERAL;-23.58968;-46.38796
308;IND;;309;1997;;PMSP;REPARAÇÃO DO LEITO CARROÇAVEL;RUA FRIBURGO, 72;ST;LAUZANE PAULISTA;MARIA HELENA PEREIRA FONTES;PARTIDO LIBERAL;-23.47608;-46.6462
309;IND;;310;1997;;PMSP;RECAPEAMENTO DE VIA PUBLICA;AV ADOLFO COELHO;ST;LAUZANE PAULISTA;MARIA HELENA PEREIRA FONTES;PARTIDO LIBERAL;-23.47375;-46.64602
310;IND;;311;1997;;PMSP;REPARAÇÃO DO LEITO CARROÇAVEL;RUA VALOR B, 435;ST;LAUZANE PAULISTA;MARIA HELENA PEREIRA FONTES;PARTIDO LIBERAL;-23.47497;-46.64505
311;IND;;312;1997;;PMSP;INSTITUIÇÃO DE UMA LINHA DE ONIBUS;BAIRRO DO CAMPO LIMPO AO CEASA;;;ANTONIO SALIM CURIATI JUNIOR;PARTIDO PROGRESSISTA BRASILEIRO;-23.64187;-46.76621
312;IND;;313;1997;;PMSP;FABRICAÇÃO DE TIJOLOS OU BLOCOS A SEREM UTILIZADOSNA CONOSTRUÇÃO DE HABITAÇÕES POPULARES;;;;ANTONIO SALIM CURIATI JUNIOR;PARTIDO PROGRESSISTA BRASILEIRO;;
313;IND;;314;1997;;CET;ENCONTRO DE REIVINDICAÇÃO DOS MORADORES, COMERCIANTES, TRABALHADORES E DEMAIS PESSOAS;RUA BRAULIO GOMES;;;ANTONIO SALIM CURIATI JUNIOR;PARTIDO PROGRESSISTA BRASILEIRO;-23.54708;-46.64147
314;IND;;315;1997;;PMSP;VIABILIDADE DA COLOCAÇÃO DE TELAS PROTETORAS OUOUTROS EQUIPAMENTOS NAS BOCAS DE LOBO E BUEIROS;;;;ANTONIO SALIM CURIATI JUNIOR;PARTIDO PROGRESSISTA BRASILEIRO;;
315;IND;;316;1997;;PMSP;TAPAR BURACO;AV. MORUMBI A 150 METROS DA PONTE SOBRE O RIOPINHEIROS SENTIDO MARGINAL;;PINHEIROS;JOSE IVO MORGANTI LEITE;PART.DO MOVIMENTO DEMOCRATICO BRASILEIRO;-23.60711;-46.6993099
316;IND;;317;1997;;PMSP;TAPAR BURACO;MARGINAL PINHEIROS PROXIMO A PONTE JOÃO DIAS;;SANTO AMARO;JOSE IVO MORGANTI LEITE;PART.DO MOVIMENTO DEMOCRATICO BRASILEIRO;-23.64458;-46.72562
317;IND;;318;1997;;PMSP;LIMPAR BOCA DE LOBO;AV. RIO BRANCO ESQUINA COM ARUA VITORIA;;CAMPOS ELISEOS;JOSE IVO MORGANTI LEITE;PART.DO MOVIMENTO DEMOCRATICO BRASILEIRO;;
318;IND;;319;1997;;PMSP;LIMPAR BOCA DE LOBO;AV. NOVE DE JULHO 4.300;;JD. AMERICA;JOSE IVO MORGANTI LEITE;PART.DO MOVIMENTO DEMOCRATICO BRASILEIRO;-23.57451;-46.66795
319;IND;;320;1997;;PMSP;TAPAR BURACOS;RUA SIMÃO LOPES;;VILA MORAES;JOSE IVO MORGANTI LEITE;PART.DO MOVIMENTO DEMOCRATICO BRASILEIRO;-23.63151;-46.60682
320;IND;;321;1997;;PMSP;DOTAR DE CADA CEMITERIO MUNICIPAL UM VELORIO, RE-FORMANDO OS EXISTENTES, OU CONSTRUINDO OUTROS;CEMOTÉRIOS MUNICIPAIS;;;JOSE IVO MORGANTI LEITE;PART.DO MOVIMENTO DEMOCRATICO BRASILEIRO;;
321;IND;;322;1997;;PMSP;PERMITIR AO VEICULOS DO SERVIÇO DE TAXI, TRANSITONOS CORREDORES EEXCLUSIVOS DO TRANP. COLETIVOS;CORREDORES DE ÕNIBUS;;;JOSE IVO MORGANTI LEITE;PART.DO MOVIMENTO DEMOCRATICO BRASILEIRO;;
322;IND;;323;1997;;PMSP;LAVAGEM E LIMPEZA DO ESCADÃO DE PASSAGEM;RUAS CAJAIBA E RUA TUCUNA, ALT. DO 1300;;PONPEIA;PAULO JESUS FRANGE;PARTIDO TRABALHISTA BRASILEIRO;-23.5379745;-46.6877683
323;IND;;324;1997;;PMSP;COLOCADAS PLACAS DE PROIBIÇÃO DE LIXO;RUAS CAJAIBA E TUCUNA;;LAPA;PAULO JESUS FRANGE;PARTIDO TRABALHISTA BRASILEIRO;-23.53843;-46.68587
324;IND;;325;1997;;A TELESP;INSTALAR TELEFONE PUBLICO;RUA ANDRE DE RESENDE, ATL. 29;;JD. GUARUJÁ;MARIO POERNER DIAS FERNANDES;DEMOCRATAS;-23.69292;-46.79126
325;IND;;326;1997;;A TELESP;INSTALAR TELEFONE PUBLICO;AV. S. PAULO, ALT. DO 306;;PARQUE HORIZONTE AZUL;MARIO POERNER DIAS FERNANDES;DEMOCRATAS;-23.55448;-46.55155
326;IND;;327;1997;;A TELESP;INSTALR TELEFONE PUBLICO;RUA SERGIPE;;PARQUE HORIZONTE AZUL;MARIO POERNER DIAS FERNANDES;DEMOCRATAS;-23.54827;-46.65705
327;IND;;328;1997;;A TELESP;INSTALAR TELEFONE PUBLICO;RUA GOIAS, ALT. DO 45;;PARQUE HORIZONTE AZUL;MARIO POERNER DIAS FERNANDES;DEMOCRATAS;;
328;IND;;329;1997;;A TELESP;INSTALAR TELEFONE PUBLICO;RUA RIO GRANDE DO NORTE, ATL, 19¨;;PARQUE HORIZONTE AZUL;MARIO POERNER DIAS FERNANDES;DEMOCRATAS;-23.7465699;-46.78492
329;IND;;330;1997;;A CET;INSTALAR CAIXA COLETORA P/ CORREIO;RUA AUGUSTA AVELINA DE MORAES ALT. DA 236;;PARQUE DAS CEREJEIRAS;MARIO POERNER DIAS FERNANDES;DEMOCRATAS;-23.72758;-46.78067
330;IND;;331;1997;;TELESP;INSTALAR TELEFONE PUBLICO;RUA AUGUSTA AVELINA DE MORAES, ATL. 236;;PARQUE DAS CEREJEIRAS;MARIO POERNER DIAS FERNANDES;DEMOCRATAS;-23.72758;-46.78067
331;IND;;332;1997;;A TELESP;INSTALAR TELEFONE PUBLICO;RUA 13 ALT. DO 2;;PARQUE HORIZONTE AZUL;MARIO POERNER DIAS FERNANDES;DEMOCRATAS;-23.6088142;-46.4540831
332;IND;;333;1997;;A TELESP;INSTALAR TELEFONE PUBLICO;RUA AUGUSTA AVELINA DE MORAES, ATL. 236;;PARQUE DAS CEREJAS;MARIO POERNER DIAS FERNANDES;DEMOCRATAS;;
333;IND;;334;1997;;A SABESP;INSTALAR TAMPÃO DE FERRO FUNDIDOP/ ESGOTO;RUA CHARLES CHAPLIN, ESQUINA COM AV. GUILHERMEDUMONT VILLARES;;JD. SUZANA;MARIO POERNER DIAS FERNANDES;DEMOCRATAS;-23.61589;-46.74092
334;IND;;335;1997;;PMSP;CONSTRUÇÃO DE ESCADÃO EM VIELAS;VIELAS ENTRE AS RUAS BATALHA REIS, JOHN ADAMS EGARCIA DE TOLEDO;;JD. S. BENTO;MARIO POERNER DIAS FERNANDES;DEMOCRATAS;;
335;IND;;336;1997;;PMSP;CONSTRUÇÃO DE VIELA;VIELA ENTRE AS RUAS PROF. JOSÉ MARIA CHAVES E DOSCPMPASSOS;;JD. PLANALTO;MARIO POERNER DIAS FERNANDES;DEMOCRATAS;;
336;IND;;337;1997;;PMSP;LIMPEZA GERAL DO CORREGO PONTE BAIXA;RUAS FELIPE DE VERAS, GUILHERME VALENTE, FOZ DOGIRALDI, VICENTE CARA NETO, JOÃO DA VEIGA;;JD. VERGUEIRO;JOSE SILVA AMORIM;PARTIDO TRABALHISTA BRASILEIRO;;
337;IND;;338;1997;;PMSP;CONSTRUIR UM ATERRO OU TUBULAÇÃO NO CORREGO QUECORTA _O BAIRRO RECANTO VERDE;ASSOCIAÇÃO DOS MORADORES RECANTO VERDE DO SOL;;SÃO MATEUS;ANTONIO SALIM CURIATI JUNIOR;PARTIDO PROGRESSISTA BRASILEIRO;;
338;IND;;339;1997;;A ELETROPAULO;INSTALAR POSTES DE ILUMINAÇÃO;NAS VIELAS 01,02,03,04 E 05;;RECANTO VERDE DO SOL;ANTONIO SALIM CURIATI JUNIOR;PARTIDO PROGRESSISTA BRASILEIRO;-23.58696;-46.39755
339;IND;;340;1997;;PMSP;NIVELAMENTO E O CASCALHAMENTO;RUAS 03, INDEPEND|ÊNCIA, D E TRAVESSA DA RUA 02,JD. JOSÉ - SÃO MATEUS;;SÃO MATEUS;ANTONIO SALIM CURIATI JUNIOR;PARTIDO PROGRESSISTA BRASILEIRO;;
340;IND;;341;1997;;AO SECRETARIO DE TRANSPORTE MUNICIPAL;ORIENTEM OS MOTORISTAS DOS COLETIVOS P/ QUE OBEDE-ÇAM RIGOROSAMENTE OS PONTOS DE PARADA;EMPRESAS DE ÔNIBUS;;;ANTONIO SALIM CURIATI JUNIOR;PARTIDO PROGRESSISTA BRASILEIRO;;
341;IND;;342;1997;;PMSP;GRADE DE PRESERVAÇÃO A CANTEIRO CENTRAL;AV. PAES DE BARROS DO 1200 AO 1700;;MOOCA;VICENTE BENEDITO VISCOME;PARTIDO PROGRESSISTA BRASILEIRO;-23.56503;-46.5957099
342;IND;;343;1997;;PMSP;CASCALHAMENTO;RUA PADRE LUIS DE SIQUEIRA;;JD. RODOLFO PIRANI;VICENTE BENEDITO VISCOME;PARTIDO PROGRESSISTA BRASILEIRO;-23.62971;-46.46112
343;IND;;344;1997;;PMSP;PAVIMENTAÇÃO;TRAVESSA ETERNIDADE;;JD. BRASIL;VICENTE BENEDITO VISCOME;PARTIDO PROGRESSISTA BRASILEIRO;-23.48543;-46.57412
344;IND;;345;1997;;PMSP;RECOSNTRUÇÃO DE PASSARELA;RUA TENENTE AMÁLIO DA SILVEIRA COM RUA DA BICICLE-TA;;VILA MARIA BAIXA;VICENTE BENEDITO VISCOME;PARTIDO PROGRESSISTA BRASILEIRO;;
345;IND;;346;1997;;PMSP;CANALIZAÇÃO DO CORREGO;AV. CELSO GARCIA ATÉ A MARGINAL DO TIETE;;TATUAPÉ;ANTONIO DE PAIVA MONTEIRO Fo.;PARTIDO DA REPÚBLICA;;
346;IND;;347;1997;;PMSP;CONSTRUÇÃO DE LOMBADAS;RUA ACAPUZAL;;VILA CISPER;ANTONIO DE PAIVA MONTEIRO Fo.;PARTIDO DA REPÚBLICA;-23.4949;-46.49648
347;IND;;348;1997;;PMSP;LIMPEZA DOS BUEIROS E DA PRAÇA;RUA EMBAIXADOR SAMUEL GRACIE, 11;;JD LISBOA;ANTONIO DE PAIVA MONTEIRO Fo.;PARTIDO DA REPÚBLICA;-23.51849;-46.49916
348;IND;;349;1997;;PMSP;LIMPEZA DOS BUEIROS;AV MENDONÇA DRUMOND;;JD MARINGA;ANTONIO DE PAIVA MONTEIRO Fo.;PARTIDO DA REPÚBLICA;-23.5504399;-46.51432
349;IND;;350;1997;;PMSP;INSTALAÇÃO DE REDUTORES DE VELOCIDADE;AV OLAVO EGIDIO DE SOUZA, ENTRE OS N. 700 E 1600;;V CISPER;ANTONIO DE PAIVA MONTEIRO Fo.;PARTIDO DA REPÚBLICA;-23.5022449;-46.4939996
350;IND;;351;1997;;PMSP;CAPEAMENTO ASFALTICO;RUA ANTONIO CIUCIO;;TATUAPE;ANTONIO DE PAIVA MONTEIRO Fo.;PARTIDO DA REPÚBLICA;-23.5548499;-46.64788
351;IND;;352;1997;;PMSP;IMPLANTAÇÃO DE RUA DE LAZER;AV TUCUMÃ;;V BUENOS AIRES;ANTONIO DE PAIVA MONTEIRO Fo.;PARTIDO DA REPÚBLICA;-23.51072;-46.51598
352;IND;;353;1997;;PMSP;LIMPEZA E URBANIZAÇÃO;PRAÇA JANDAIRA;;A.E.CARVALHO;ANTONIO DE PAIVA MONTEIRO Fo.;PARTIDO DA REPÚBLICA;-23.52797;-46.46421
353;IND;;354;1997;;PMSP;REFORMA GERAL E URBANIZAÇÃO;PRAÇA HAROLDO DALTRO;;V N MANCHESTER;ANTONIO DE PAIVA MONTEIRO Fo.;PARTIDO DA REPÚBLICA;-23.54621;-46.53324
354;IND;;355;1997;;PMSP;LIMPEZA DE BUEIROS;RUA ARAÇAZAL, ALTURA DO N. 217;;ERMELINO MATARAZZO;ANTONIO DE PAIVA MONTEIRO Fo.;PARTIDO DA REPÚBLICA;;
355;IND;;356;1997;;PMSP;REDUTORES DE VELOCIDADE;RUA ANTONIO CIUCIO;;TATUAPE;ANTONIO DE PAIVA MONTEIRO Fo.;PARTIDO DA REPÚBLICA;-23.5548499;-46.64788
356;IND;;357;1997;;PMSP;CONSERVAÇÃO DO LEITO CARROÇAVEL;RUA HENRIQUE REIMBERG E AV SENADOR TEOTONIO VILELA;;PARELHEIROS;ANTONIO GOULART DOS REIS;PARTIDO SOCIAL DEMOCRATICO;;
357;IND;;358;1997;;PMSP;CONSTRUÇÃO DA CALÇADA E QUE SEJA MURADA A AREA MU-NICIPAL;TRAV SIRILO JUSTO NASCIMENTO, LOCALIZADA ENTRE ASRUAS DR. D0MINGOS FRREIRE E MINISTRO PLINIO TRAVASSOS;;JD CACHOEIRA;JOSE VIVIANI FERRAZ;PARTIDO LIBERAL;;
358;IND;;359;1997;;SECRETARIO DE VIAS PUBLICAS;CANALIZAÇÃO DAS AGUAS SERVIDAS;RUA SAO ROQUE DE MINASFAVELA LETICIA CINI;;;JOSE VIVIANI FERRAZ;PARTIDO LIBERAL;-23.45332;-46.66179
359;IND;;360;1997;;PMSP;DESAPROPRIAÇÃO DO TERRENO;RUA JOSE PEREIRA ARAUJO ESQUINA COM A AV. MINISTROPETRONIO PORTELA;;V AMELIA;JOSE VIVIANI FERRAZ;PARTIDO LIBERAL;;
360;IND;;361;1997;;SECRETARIO MUNICIPAL DAS AR;CAPEAMENTO ASFALTICOS;RUA MANUEL JOSE DE ALMEIDA;;V CRUZ DAS ALMAS;JOSE VIVIANI FERRAZ;PARTIDO LIBERAL;-23.48061;-46.70002
361;IND;;362;1997;;PMSP;PAVIMENTAÇÃO;RUA HENRIQUE REIMBERG(SEDE DA ASSOCIAÇÃO DE AMIGOS DO AUTISTA);CS;PARELHEIROS;WADIH JORGE MUTRAN;PARTIDO DEMOCRATICO TRABALHISTA;;
362;IND;;363;1997;;PMSP;ALARGAMENTO;AV TEOTONIO VILELA (TRECHO ANTIGA ESTRADA DE PARE-LHEIROS);CS;PARELHEIROS;WADIH JORGE MUTRAN;PARTIDO DEMOCRATICO TRABALHISTA;-23.77013;-46.71798
363;IND;;364;1997;;PMSP;RECAPEAMENTO;AV TEOTONIO VILELA (TRECHO ANTIGA ESTRADA DE PARE-LHEIROS);CS;PARELHEIROS;WADIH JORGE MUTRAN;PARTIDO DEMOCRATICO TRABALHISTA;-23.77013;-46.71798
364;IND;;365;1997;;PMSP;ASSENTAMENTO DE CASCALHO;TRAV DA RUA 2;SM;JD SAO JOSE;WADIH JORGE MUTRAN;PARTIDO DEMOCRATICO TRABALHISTA;-23.7551;-46.6582
365;IND;;366;1997;;PMSP;ASSENTAMENTO DE CASCALHO;RUA D;SM;JD. SÃO JOSE;WADIH JORGE MUTRAN;PARTIDO DEMOCRATICO TRABALHISTA;-23.65634;-46.72918
366;IND;;367;1997;;PMSP;ASSENTAMENTO DE CASCALHO;RUA INDEPENDENCIA;SM;JD SAO JOSE;WADIH JORGE MUTRAN;PARTIDO DEMOCRATICO TRABALHISTA;-23.25397;-45.91793
367;IND;;368;1997;;PMSP;ASSENTAMENTO DE CASCALHO;RUA 3;SM;JD SAO JOSE;WADIH JORGE MUTRAN;PARTIDO DEMOCRATICO TRABALHISTA;-23.7551;-46.6582
368;IND;;369;1997;;PMSP;CANALIZAÇÃO DE CORREGO;RECANTO VERDE DO SOL III;SM;RECANTO VERDE DO SOL;WADIH JORGE MUTRAN;PARTIDO DEMOCRATICO TRABALHISTA;-23.43344;-46.58106
369;IND;;370;1997;;ELETROPAULO;POSTEAMENTO DAS VIELAS, 01, 02, 03, 04 E 05;POSTEAMEEENNTTO DAS VIELAS 01, 02, 03, 04 E 05 DOBAIRRO RECANTO VERDE DO SOL;SM;;WADIH JORGE MUTRAN;PARTIDO DEMOCRATICO TRABALHISTA;;
370;IND;;371;1997;;PMSP;IMPLANTAÇÃO DE 4 LOMBADAS E SINALIZAÇÃO PARA REDU-ÇÃO DE VELOCIDADE DOS VEICULOS;RUA DENIS CHAUDETE, 15 E IMEDIAÇÕES (3 LOMBADAS)RUA ALESSANDRO BIBIENA, 50 (1 LOMBADA);;JD DRASCENA;NELSON GUIMARAES PROENCA;PARTIDO DA SOCIAL DEMOCRACIA BRASILEIRA;;
371;IND;;372;1997;;TELESP;FAVELA VALE DA ESPERANÇA;RUA DENIS CHAUDET, 50;BT;JD DRASCENA;NELSON GUIMARAES PROENCA;PARTIDO DA SOCIAL DEMOCRACIA BRASILEIRA;-23.59337;-46.75911
372;IND;;373;1997;;PMSP;REPARAÇÃO DO LEITO CARROÇAVEL;RUA MARIA ANTONIA MARTINS;FO;JD PERY;MARIA HELENA PEREIRA FONTES;PARTIDO LIBERAL;-23.46297;-46.65665
373;IND;;374;1997;;PMSP;REPARAÇÃO DO CALÇAMENTO COM MUITOS BURACOS;RUA JOSE DA CUNHA PONTE;FO;PQ BELEM;MARIA HELENA PEREIRA FONTES;PARTIDO LIBERAL;-23.46129;-46.68522
374;IND;;375;1997;;PMSP;ILUMINAÇÃO PUBLICA;RUA ROSSIO DO CARMO;FO;V N CACHOEIRINHA;MARIA HELENA PEREIRA FONTES;PARTIDO LIBERAL;-23.58968;-46.38796
375;IND;;376;1997;;PMSP;REPARAÇÃO DO LEITO CARROÇAVEL;RUA SAID SAAD, ALTURA DO N. 350;FO;V AMALIA;MARIA HELENA PEREIRA FONTES;PARTIDO LIBERAL;-23.46665;-46.64893
376;IND;;377;1997;;SECRETARIO MUNICIPAL DA SAUDE;CONVOCAÇÃO E EORGANIZAÇÃO DA 7A. CONFERENCIA MUNI-CIPAL DE SAUDE SAO PAULO;;;;CARLOS ALBERTO PLETZ NEDER;PARTIDO DOS TRABALHADORES;;
377;IND;;378;1997;;METRO;PLENO FUNCIONAMENTO DOS SANITARIOS PUBLICOS LOCALIZADOS NO METRO DA SE, SAO BENTO, BRAS E DOM PEDRO;;;;CARLOS ALBERTO PLETZ NEDER;PARTIDO DOS TRABALHADORES;;
378;IND;;379;1997;;A SABESP;REDE DE ESGOTO;AV. INCONFIDÊNCIA MINEIRA, ENTRE AS RUAS CEL. JOÃODE OLIVEIRA MELO E RUA JOSÉ LOPES DE TOLEDO;;VILA ANTONIETA;VICENTE BENEDITO VISCOME;PARTIDO PROGRESSISTA BRASILEIRO;;
379;IND;;380;1997;;SECRETARIO MUNICIPAL DE TRANSPORTES;INFORMAÇÕES SOBRE O SR. CARLOS ALBERTO SANCHES DELIMA RF. 590. 080.8.01;INFORMAÇÕES;;;CARLOS ALBERTO PLETZ NEDER;PARTIDO DOS TRABALHADORES;-23.56287;-46.65469
380;IND;;381;1997;;PMSP;REGULARIZAÇÃO MECAMICA E CASCALHAMENTO;RUA LYDIA DAMUS MAKSOUD;;JD. AMPLIAÇÃO;MARIO POERNER DIAS FERNANDES;DEMOCRATAS;-23.62854;-46.72845
381;IND;;382;1997;;PMSP;LIMPEZA E RETIRADA DE ENTULHO;RUA LYDIA DAMUS MAKSOUD;;JD. AMPLIAÇÃO;MARIO POERNER DIAS FERNANDES;DEMOCRATAS;-23.62854;-46.72845
382;IND;;383;1997;;PMSP;REMOÇÃO DE ÁRVORE;RUA SÃO JOSÉ, 848;;ALTO DA BOA VISTA;MARIO POERNER DIAS FERNANDES;DEMOCRATAS;-23.6802199;-46.64466
383;IND;;384;1997;;PMSP;REMOÇÃO DE LOMBADA, LOCALIZADA DEFRONTE A SAÍDA DEGARAGEM;RUA ARLINDO FRAGA DE OLIVEIRA, 26;;JD. SÃO LUIZ;MARIO POERNER DIAS FERNANDES;DEMOCRATAS;-23.65152;-46.73471
384;IND;;385;1997;;PMSP;IMPLANTAÇÃO DE LOMBADAS;RUA MANUEL DE FRAGOSO;;JD. ANGELINA;MARIO POERNER DIAS FERNANDES;DEMOCRATAS;;
385;IND;;386;1997;;PMSP;PAVIMENTAÇÃO ASFALTICA;RUA RAINHA DAS MISSÕES;;VILA MISSIONÁRIA;MARIO POERNER DIAS FERNANDES;DEMOCRATAS;-23.6877299;-46.64794
386;IND;;387;1997;;A ELETROPAULO;SUBSTITUIÇÃO DE ILUMINAÇÃO POR LAMPADAS MAISPOTENTES;RUA CORINA ANTUNES GARAGAZA;;VILA GULHERME;WADIH JORGE MUTRAN;PARTIDO DEMOCRATICO TRABALHISTA;-23.51113;-46.60369
387;IND;;388;1997;;A ELETROPAULO;SUBSTITUIÇÃO DE LAMPADAS QUEIMADAS;RUA MARAÃ, 414;;VILA MEDEIROS;WADIH JORGE MUTRAN;PARTIDO DEMOCRATICO TRABALHISTA;-23.49542;-46.58927
388;IND;;389;1997;;PMSP;CONSTRUÇÃO DE LOMBADAS;RUA SANTO ADOLFO ENTRE OS NUMEROS 18 E 203;MG;V MEDEIROS;WADIH JORGE MUTRAN;PARTIDO DEMOCRATICO TRABALHISTA;-23.49621;-46.58876
389;IND;;390;1997;;PMSP;RECAPEAMENTO;RUA ASTRAPEIA, ALTURA DO N. 369;MG;V MUNHOZ;WADIH JORGE MUTRAN;PARTIDO DEMOCRATICO TRABALHISTA;-23.4973;-46.58984
390;IND;;391;1997;;SECRETARIO DA EDUCAÇÃO;PROVIDENCIAR A MUDANÇA DO PORTÃO DE ENTRADA DA ES-COLA MUNICIPAL PORF. ANTONIO PRUDENTE;RUA LUIS EDMUNDO;;JD. ALMANARA;JOSE VIVIANI FERRAZ;PARTIDO LIBERAL;-23.47598;-46.6770799
391;IND;;392;1997;;PMSP;MÃO UNICA DE DIREÇÃO;AV JURUCE, 406/416;VM;MOEMA;JOSE IVO MORGANTI LEITE;PART.DO MOVIMENTO DEMOCRATICO BRASILEIRO;-23.60884;-46.66189
392;IND;;393;1997;;PMSP;LIMPAR BOCA DE LOBO;RUA CAPOTE VALENTE ESQUINA COM AV. REBOUÇAS;PI;CERQUEIRA CESAR;JOSE IVO MORGANTI LEITE;PART.DO MOVIMENTO DEMOCRATICO BRASILEIRO;;
393;IND;;394;1997;;PMSP;LIMPAR BOCA DE LOBO;AV LIBERDADE, 103;SE;CENTRO;JOSE IVO MORGANTI LEITE;PART.DO MOVIMENTO DEMOCRATICO BRASILEIRO;-23.5303324;-46.7879294
394;IND;;395;1997;;PMSP;LIMPAR BOCA DE LOBO;AV LINNEU DE PAULA MACHADO;PI;CIDADE JARDIM;JOSE IVO MORGANTI LEITE;PART.DO MOVIMENTO DEMOCRATICO BRASILEIRO;-23.57701;-46.70205
395;IND;;396;1997;;PMSP;PODAR A GRAMA;PRAÇA LUIZ CARLOS PARANA;PI;ITAIM BIBI;JOSE IVO MORGANTI LEITE;PART.DO MOVIMENTO DEMOCRATICO BRASILEIRO;-23.58213;-46.6841
396;IND;;397;1997;;PMSP;ASFALTO EM VIA DE ACESSO;RUA OURO VELHORUA DO PROMOTORIO;FO;JD ANA MARIA;VICENTE CANDIDO DA SILVA;PARTIDO DOS TRABALHADORES;;
397;IND;;398;1997;;AO CHEFE DO EXECUTIVO MUNICIPAL;REPAROS NO ASFALTO E NA CALÇAMENTO;RUA GOMES LEAL, NA ESQUINA COM A AV GENERAL PENHABRASIL;;FREQUESIA DO O;MARIA HELENA PEREIRA FONTES;PARTIDO LIBERAL;;
398;IND;;399;1997;;PMSP;INSTALAR UM SINAL SEMAFÓRICO;CRUZAMENTO DA RUA GOMES LEAL COM A AV. GENERALPENHA BRASIL;;FREQUESIA DO O;MARIA HELENA PEREIRA FONTES;PARTIDO LIBERAL;;
399;IND;;400;1997;;PMSP;PAVIMENTAÇÃO E CALÇAMENTO;RUA SOLDADO ANTONIO APARECIDO;;VILA MARIA;MARIA HELENA PEREIRA FONTES;PARTIDO LIBERAL;-23.50578;-46.57441
400;IND;;401;1997;;PMSP;IMPLANTAR LOMBADA;55 DA RUA FORTE DE SÃO CAETANO;;JARDIM PERY;MARIA HELENA PEREIRA FONTES;PARTIDO LIBERAL;-23.45953;-46.65598
401;IND;;402;1997;;PMSP;ILUMINAÇÃO PUBLICA;TRAVESSA ETERNIDADE;;VILA SABRINA;MARIA HELENA PEREIRA FONTES;PARTIDO LIBERAL;-23.48543;-46.57412
402;IND;;403;1997;;AO SR. SECRETARIO DE VIAS PUBLICAS;CONSTRUÇÃO DA ADM REGIONAL DE PIRITUBA;REGIONAL DE PIRITUBA;;PIRITUBA;JOSE VIVIANI FERRAZ;PARTIDO LIBERAL;-23.46625;-46.7235
403;IND;;404;1997;;AO SR. SECREATRIO DE EDUCAÇÃO;USO DAS SALAS DE AULA OCIOSAS DAS ESCOLAS ESTA-DUAIS, COM PROFESSORES MUNICIPAIS;ESCOLAS ESTADUAIS;;;JOSE VIVIANI FERRAZ;PARTIDO LIBERAL;-23.56287;-46.65469
404;IND;;405;1997;;PMSP;ALARGAMENTO;AV. RAIMUNDO PEREIRA DE MAGALHÃES;;PIRITUBA;LIDIA CORREA DA SILVA;PART.DO MOVIMENTO DEMOCRATICO BRASILEIRO;-23.44377;-46.72152
405;IND;;406;1997;;SR. SECRETARIO MUNICIPAL DE EDUCAÇÃO;REGULARIZAÇÃO DA ESCOLINHA MUNICIPAL DE PRIMEIROGRAU DONA CHIQUINHA RODRIGUES;RUA PASCAL;;CAMPO BELO;AURELIO NOMURA;PARTIDO DA SOCIAL DEMOCRACIA BRASILEIRA;-23.49176;-46.44818
406;IND;;407;1997;;EXECUTIVO;ASFALTAMENTO E REDE DE ESGOTO;RUA DAS ESTRELAS E RUA PEIXES;;JD.MATHEUS;JOSE SILVA AMORIM;PARTIDO TRABALHISTA BRASILEIRO;-23.6042099;-46.4599199
407;IND;;408;1997;;ELETROPAULO;ILUMINAÇÃO PUBLICA;RUAS MANUEL QUIRINO DE MATOS, MARIA ROSA DE SOUZA,HUMBERTO MUNHOZ, JOÃO LOPES DE LIMA;;SAPOPEMBA;GILSON ALMEIDA BARRETO;PARTIDO DA SOCIAL DEMOCRACIA BRASILEIRA;;
408;IND;;409;1997;;PMSP;CONSTRUÇÃO DA UNIDADE BÁSICA DE SAUDE DO JD. DACONQUISTA;JD. DA CONQUISTA;;JD. DA CONQUISTA;GILSON ALMEIDA BARRETO;PARTIDO DA SOCIAL DEMOCRACIA BRASILEIRA;-23.60766;-46.4520399
409;IND;;410;1997;;PMSP;ILUMINAÇÃO PUBLICA;RUA CARLOS ALBERTO DE OLIVEIRA;;;GILSON ALMEIDA BARRETO;PARTIDO DA SOCIAL DEMOCRACIA BRASILEIRA;-23.45248;-46.60129
410;IND;;411;1997;;PMSP;DETETIZALÇÃO E DESRATIZAÇÃO DA ESCOLA ESTATUALPROF. ADEMAR ANTONIO;RUA FERNANDES TOURINHO, 133;;VERA CRUZ;GILSON ALMEIDA BARRETO;PARTIDO DA SOCIAL DEMOCRACIA BRASILEIRA;-23.6168479;-46.469641
411;IND;;412;1997;;PMSP;PAVIMENTAÇÃO;RUA LUIS GIUDICE - VILA FLÁVIA;;RUA LUYIS GIDUDICE;GILSON ALMEIDA BARRETO;PARTIDO DA SOCIAL DEMOCRACIA BRASILEIRA;;
412;IND;;413;1997;;PMSP;CANALIZAÇÃO DE CORRÉGO EXISTENTE;RUA JOÃO BATISTA SANTIAGO E O CORRÉGO ÁGUA VERME-LHA -;;SÃO MIGUEL;GILSON ALMEIDA BARRETO;PARTIDO DA SOCIAL DEMOCRACIA BRASILEIRA;;
413;IND;;414;1997;;PMSP;PLANTIO DE ARVORE;RUA JOSÉ DE ARAUJÓ VIEIRA;;JD. RODOLFO PIRANI;GILSON ALMEIDA BARRETO;PARTIDO DA SOCIAL DEMOCRACIA BRASILEIRA;-23.62751;-46.4635
414;IND;;415;1997;;PMSP;COSNTRUÇÃO DE ESCADARIA, PASSAGEM EM DECLIVE;RUA ADUTORA DO RIO CLARO;;CHICO MENDES;GILSON ALMEIDA BARRETO;PARTIDO DA SOCIAL DEMOCRACIA BRASILEIRA;-23.5902;-46.5314
415;IND;;416;1997;;A SABESP;CANALIZAÇÃO DE CORREGO ATRAS DA RUA MANUEL CHAVES;RUA FRANCISCO SANTOS COIMBRA;;RODOLFO PIRANI;GILSON ALMEIDA BARRETO;PARTIDO DA SOCIAL DEMOCRACIA BRASILEIRA;-23.62653;-46.45987
416;IND;;417;1997;;PMSP;CONSTRUÇÃO DE ESCADARIA;VIELA LOCALIZADA NA RUA SOL - CIDADE SATÉLITE;;SANTA BARBARA;GILSON ALMEIDA BARRETO;PARTIDO DA SOCIAL DEMOCRACIA BRASILEIRA;-23.60894;-46.46182
417;IND;;418;1997;;MSP;REDUTORES DE VELOCIDADE;RUA CARNAUBÁ APÓS O NUMERO 11;;VILA ARAPUÃ;GILSON ALMEIDA BARRETO;PARTIDO DA SOCIAL DEMOCRACIA BRASILEIRA;-23.63281;-46.58766
418;IND;;419;1997;;PMSP;CONSTRUÇÃO DE CRECHE DO JD. PIRACUAMA;JD. PIRACUAMA;;JD. PIRACUAMA;GILSON ALMEIDA BARRETO;PARTIDO DA SOCIAL DEMOCRACIA BRASILEIRA;-23.6410899;-46.76423
419;IND;;420;1997;;PMSP;DUPLICAÇÃO DE VIA PUBLICA;AV. MARIA BECK MACHADO E VIADUTO CUNHA BUENO;;NOVA ITAQUERA;GILSON ALMEIDA BARRETO;PARTIDO DA SOCIAL DEMOCRACIA BRASILEIRA;;
420;IND;;421;1997;;PMSP;VIADUTO DE LIGAÇÃO;RUA PLÁCIDO PARREIRA LIMA COM RUA RITA DO PARAISO;;JD. QUISSIZANA;GILSON ALMEIDA BARRETO;PARTIDO DA SOCIAL DEMOCRACIA BRASILEIRA;-23.51846;-46.40798
421;IND;;422;1997;;PMSP;CANALIZAÇÃO DO CORRÉGO;ESTRADA D. JOÃO NERY E RUA PADRE VICENTE DE ARAUJO;;SÃO MIGUEL PAULISTA;GILSON ALMEIDA BARRETO;PARTIDO DA SOCIAL DEMOCRACIA BRASILEIRA;-23.49871;-46.40588
422;IND;;423;1997;;PMSP;CANALIZAÇÃO DO CORREGO;AV. VITALINO ROTELINI ATÉ O RIO ARICANDUVA;;SÃO MATHEUS;GILSON ALMEIDA BARRETO;PARTIDO DA SOCIAL DEMOCRACIA BRASILEIRA;-23.59806;-46.47975
423;IND;;424;1997;;PMSP;CANALIZAÇÃO DO CORREGO;LINDEIRO A RUA ÁGUA VERMELHA - JD. ARANTES;;JD. ARANTES;GILSON ALMEIDA BARRETO;PARTIDO DA SOCIAL DEMOCRACIA BRASILEIRA;;
424;IND;;425;1997;;PMSP;CANALIZAÇÃO DO CORREGO;AV. TENENTE LAURO SODRE;;SÃO MATHEUS;GILSON ALMEIDA BARRETO;PARTIDO DA SOCIAL DEMOCRACIA BRASILEIRA;-23.61863;-46.48366
425;IND;;426;1997;;PMSP;CANALIZAÇÃO DO CORRÉGO ITAQUERA MIRIM;ITAQUERA;;ITAQUERA;GILSON ALMEIDA BARRETO;PARTIDO DA SOCIAL DEMOCRACIA BRASILEIRA;-23.54366;-46.46036
426;IND;;427;1997;;PMSP;CONSTRUÇÃO DO MINI ANEL VIÁRIO DE S. MATEUS;PRAÇA FELISBERTO FERNANDES SILVA;;SÃO MATEUS;GILSON ALMEIDA BARRETO;PARTIDO DA SOCIAL DEMOCRACIA BRASILEIRA;-23.61133;-46.4759
427;IND;;428;1997;;PMSP;CONSTRUÇÃO CENTRO ESPORTIVO EDUCACIONAL;SÃO MATEUS;;SÃO MATEUS;GILSON ALMEIDA BARRETO;PARTIDO DA SOCIAL DEMOCRACIA BRASILEIRA;-23.4967;-46.6928399
428;IND;;429;1997;;PMSP;LIMPEZA DE BUEIRO ENTUPIDOS;RUA FREDERICO ALVARENGA;;CENTRO;GILSON ALMEIDA BARRETO;PARTIDO DA SOCIAL DEMOCRACIA BRASILEIRA;-23.55075;-46.62877
429;IND;;430;1997;;PMSP;CONSTRUÇÃO DE BIBLIOTECA PUBLICA;SÃO MATEUS;;SÃO MATEUS;GILSON ALMEIDA BARRETO;PARTIDO DA SOCIAL DEMOCRACIA BRASILEIRA;-23.4967;-46.6928399
430;IND;;431;1997;;PMSP;CONSTRUÇÃO DE MERCADO MUNICIPAL;SÃO MATEUS;;SÃO MATEUS;GILSON ALMEIDA BARRETO;PARTIDO DA SOCIAL DEMOCRACIA BRASILEIRA;-23.4967;-46.6928399
431;IND;;432;1997;;PMSP;CONSTRUÇÃO DE UNIDADE BASICA DE SAUDE;FAZENDA DA JUTA;;FAZENDA DA JUTA;GILSON ALMEIDA BARRETO;PARTIDO DA SOCIAL DEMOCRACIA BRASILEIRA;-23.61948;-46.49122
432;IND;;433;1997;;PMSP;CONSTRUÇÃO DE PONTILHÃO;SOBRE O RIO ORATÓRIO, NA DIVISA DO BAIRRO DAFAZENDA DA JUTA O MUNICIPIO DE STO ANDRE;;SÃO MATEUS;GILSON ALMEIDA BARRETO;PARTIDO DA SOCIAL DEMOCRACIA BRASILEIRA;-23.61948;-46.49122
433;IND;;434;1997;;PMSP;CONSTRUÇÃO DE PONTILHÃO SOBRE O RIO ARICANDUVA;AV. MARIA CURSI E ARICANDUVA;;SÃO MATEUS;GILSON ALMEIDA BARRETO;PARTIDO DA SOCIAL DEMOCRACIA BRASILEIRA;-23.6024299;-46.47837
434;IND;;435;1997;;PMSP;PROLONGAMENTO DE VIA PUBLICA;AV. RADIAL LESTE ENTRE AS AV. ITAQUERA E NOVATRABALHADORES;;ITAQUERA;GILSON ALMEIDA BARRETO;PARTIDO DA SOCIAL DEMOCRACIA BRASILEIRA;;
435;IND;;436;1997;;PMSP;PROLONGAMENTO DE VIA PUBLICA;RUA FELICIO ATÉ A AV. RAGUEB CHOFHI;;SÃO MATEUS;GILSON ALMEIDA BARRETO;PARTIDO DA SOCIAL DEMOCRACIA BRASILEIRA;-23.58326;-46.50042
436;IND;;437;1997;;PMSP;EXECUÇÃO DE GALERIAS DE AGUAS PLUVIAIS;VIELA LOCALIZADA ENTRE AS RUAS RONALDO DE SOUZABRITO E VICENTE DE ARAUJO;;SÃO MIGUEL;GILSON ALMEIDA BARRETO;PARTIDO DA SOCIAL DEMOCRACIA BRASILEIRA;;
437;IND;;438;1997;;PMSP;CONSTRUÇÃO DE PONTILHÃO SOBRE O CORREGO RAPADURA;RUAS PEDRO NUNES E JOÃO VIEIRA PRIASTI;;ARICANDIVA;GILSON ALMEIDA BARRETO;PARTIDO DA SOCIAL DEMOCRACIA BRASILEIRA;;
438;IND;;439;1997;;SABESP;GALERIA COM VAZAMENTO;AV. SAPOPEMBA 4538;;VILA DIVA;GILSON ALMEIDA BARRETO;PARTIDO DA SOCIAL DEMOCRACIA BRASILEIRA;-23.57802;-46.54643
439;IND;;440;1997;;PMSP;CONVÊNIO COM A PREFEITURA MUNICIPAL DE MAUA P/VIABILIZAR A CONSTRUÇÃO DE UMA PONTE;DIVISA DOS MUNICIPIOS DE S. PAULO E MAUA;;PQ. RAFAEL;CARLOS ALBERTO PLETZ NEDER;PARTIDO DOS TRABALHADORES;-23.60876;-46.55511
440;IND;;441;1997;;PMSP;MURO DE SUSTENTAÇÃO;FINAL DA RUA LUA;SM;JD TRES MARIAS;VICENTE BENEDITO VISCOME;PARTIDO PROGRESSISTA BRASILEIRO;-23.70019;-46.78844
441;IND;;442;1997;;PMSP;PAVIMENTAÇÃO;TRECHO DE 90M DA RUA ANDAMARCA;ST;JD CARLU;VICENTE BENEDITO VISCOME;PARTIDO PROGRESSISTA BRASILEIRO;-23.46766;-46.63391
442;IND;;443;1997;;PMSP;PAVIMENTAÇÃO;TRAVESSA 1;SM;JD SAO JOSE;VICENTE BENEDITO VISCOME;PARTIDO PROGRESSISTA BRASILEIRO;-23.54352;-46.5108
443;IND;;444;1997;;PMSP;PAVIMENTAÇÃO;RUA B;SM;JD SAO JOSE;VICENTE BENEDITO VISCOME;PARTIDO PROGRESSISTA BRASILEIRO;-23.65634;-46.72918
444;IND;;445;1997;;PMSP;PAVIMENTAÇÃO;TRAVESSA DOIS;SM;JD SAO JOSE;VICENTE BENEDITO VISCOME;PARTIDO PROGRESSISTA BRASILEIRO;-23.54352;-46.5108
445;IND;;446;1997;;PMSP;PAVIMENTAÇÃO;RUA SAO PEDRO;SM;JD SAO JOSE;VICENTE BENEDITO VISCOME;PARTIDO PROGRESSISTA BRASILEIRO;-23.60362;-46.54249
446;IND;;447;1997;;PMSP;PAVIMENTAÇÃO;RUA D;SM;JD SAO JOSE;VICENTE BENEDITO VISCOME;PARTIDO PROGRESSISTA BRASILEIRO;-23.65634;-46.72918
447;IND;;448;1997;;PMSP;PAVIMENTAÇÃO;RUA DOS GIRASSOIS;SM;JD LIMOEIRO II;VICENTE BENEDITO VISCOME;PARTIDO PROGRESSISTA BRASILEIRO;-23.50762;-46.4646
448;IND;;449;1997;;PMSP;PAVIMENTAÇÃO;RUA DAS MAGNOLIAS;SM;JD LIMOEIRO II;VICENTE BENEDITO VISCOME;PARTIDO PROGRESSISTA BRASILEIRO;-23.45745;-46.69543
449;IND;;450;1997;;PMSP;PAVIMENTAÇÃO;RUA ATAULFO ALVES;SM;JD LIMOEIRO II;VICENTE BENEDITO VISCOME;PARTIDO PROGRESSISTA BRASILEIRO;-23.60615;-46.53489
450;IND;;451;1997;;PMSP;PAVIMENTAÇÃO;RUA DAS DALIAS;SM;JD LIMOEIRO II;VICENTE BENEDITO VISCOME;PARTIDO PROGRESSISTA BRASILEIRO;-23.45745;-46.69543
451;IND;;452;1997;;PMSP;PAVIMENTAÇÃO;RUA RAUL SEIXAS;SM;JD LIMOEIRO II;VICENTE BENEDITO VISCOME;PARTIDO PROGRESSISTA BRASILEIRO;-23.45745;-46.69543
452;IND;;453;1997;;PMSP;PAVIMENTAÇÃO;RUA DOS LIRIOS;SM;JD LIMOEIRO II;VICENTE BENEDITO VISCOME;PARTIDO PROGRESSISTA BRASILEIRO;-23.50762;-46.4646
453;IND;;454;1997;;PMSP;PAVIMENTAÇÃO;AV LIMOEIRO;SM;JD LIMOEIRO II;VICENTE BENEDITO VISCOME;PARTIDO PROGRESSISTA BRASILEIRO;-23.50651;-46.4719
454;IND;;455;1997;;PMSP;PAVIMENTAÇÃO;RUA ARI BARROSO;SM;JD LIMOEIRO II;VICENTE BENEDITO VISCOME;PARTIDO PROGRESSISTA BRASILEIRO;-23.45745;-46.69543
455;IND;;456;1997;;PMSP;PAVIMENTAÇÃO;RUA LUIS GONZAGA;SM;JD LIMOEIRO II;VICENTE BENEDITO VISCOME;PARTIDO PROGRESSISTA BRASILEIRO;-23.44088;-46.57797
456;IND;;457;1997;;PMSP;PAVIMENTAÇÃO;TRAV GOLFO DA CALIFORNIA;SM;JD LIMOEIRO;VICENTE BENEDITO VISCOME;PARTIDO PROGRESSISTA BRASILEIRO;-23.62234;-46.41064
457;IND;;458;1997;;PMSP;PAVIMENTAÇÃO;TRAV GOLFO DE BENGALA;SM;JD LIMOEIRO;VICENTE BENEDITO VISCOME;PARTIDO PROGRESSISTA BRASILEIRO;-23.48683;-46.62597
458;IND;;459;1997;;PMSP;PAVIMENTAÇÃO;TRAV CANAL DE SUEZ;SM;JD LIMOEIRO;VICENTE BENEDITO VISCOME;PARTIDO PROGRESSISTA BRASILEIRO;-23.48683;-46.62597
459;IND;;460;1997;;PMSP;IMPLANTAÇÃO DE LOMBADA;RUA AZEVEDO SOARES ENTRE AS RUAS APUCARANA E MONTESERRAT;MO;TATUAPE;VICENTE BENEDITO VISCOME;PARTIDO PROGRESSISTA BRASILEIRO;;
460;IND;;461;1997;;PMSP;IMPLANTAÇÃO DE LOMBADA;RUA OSVALDO GOELDI, ALT DO N. 350;MP;JD TRES MARIAS;VICENTE BENEDITO VISCOME;PARTIDO PROGRESSISTA BRASILEIRO;-23.51667;-46.49138
461;IND;;462;1997;;PMSP;IMPLANTAÇÃO DE LOMBADAS;RUA ANTONIO SERTORIO, ALT DOS N, 80 E 200;MP;V CAJU;VICENTE BENEDITO VISCOME;PARTIDO PROGRESSISTA BRASILEIRO;-23.5147778;-46.4955233
462;IND;;463;1997;;PMSP;ARCO DE PROTEÇÃO PARA CANTEIRO CENTRAL;AV PAES DE BARROS, ALT DOS N.2200 E 2700;MO;MOOCA;VICENTE BENEDITO VISCOME;PARTIDO PROGRESSISTA BRASILEIRO;-23.56982;-46.58779
463;IND;;464;1997;;PMSP;COLOCAÇÃO DE FLOREIRA;RUA EMILIA MARENGO, ALT. N. 13;MO;TATUAPE;VICENTE BENEDITO VISCOME;PARTIDO PROGRESSISTA BRASILEIRO;-23.55279;-46.56701
464;IND;;465;1997;;SABESP;GALERIA ENTUPIDA;ESQUINA DA AV. RAGUEB CHOFHI COM PRAÇA TANQUE DEZUNEGA (AO LADO DA PADARIA SUPER STAR);SM;BAIRRO IGUATEMI;GILSON ALMEIDA BARRETO;PARTIDO DA SOCIAL DEMOCRACIA BRASILEIRA;;
465;IND;;466;1997;;PMSP;JD ROBRU;RUA JOAO BATISTA SANTIAGO E O CORREGO AGUA VERME-LHA;MP;PQ INDUSTRIAL;GILSON ALMEIDA BARRETO;PARTIDO DA SOCIAL DEMOCRACIA BRASILEIRA;;
466;IND;;467;1997;;PMSP;CANALIZAÇÃO DE ESGOTO;RUA EURIDES FERNANDES DO NASCIMENTO;MP;JD SILVA TELES;GILSON ALMEIDA BARRETO;PARTIDO DA SOCIAL DEMOCRACIA BRASILEIRA;-23.49797;-46.40782
467;IND;;468;1997;;PMSP;CANALIZAÇÃO DO CORREGO;RIBEIRÃO LAGEADO;MP;RIBEIRAO LAGEADO;GILSON ALMEIDA BARRETO;PARTIDO DA SOCIAL DEMOCRACIA BRASILEIRA;;
468;IND;;469;1997;;PMSP;CASCALHAMENTO E/OU LIMPEZA DA PRIMEIRA VIELA;RUA VELOSO DE ESPINHA ALTURA DA AV. SAPOPEMBA,16706;SM;JD RODOLFO PIRANI;GILSON ALMEIDA BARRETO;PARTIDO DA SOCIAL DEMOCRACIA BRASILEIRA;-23.62156;-46.46073
469;IND;;470;1997;;PMSP;COLOCAÇÃO DE BOCA DE LOBO;RUA BANDEIRA DO SUL;SM;JD TIETE;GILSON ALMEIDA BARRETO;PARTIDO DA SOCIAL DEMOCRACIA BRASILEIRA;-23.60366;-46.49347
470;IND;;471;1997;;PMSP;TROCA DE LAMPADA QUEIMADA NA PRAÇA SEM DENOMINAÇÃO;RUA BARTOLOMEU DE BRITO;SM;JD NOVE DE JULHO;GILSON ALMEIDA BARRETO;PARTIDO DA SOCIAL DEMOCRACIA BRASILEIRA;-23.5938164;-46.4829435
471;IND;;472;1997;;PMSP;PAVIMENTAÇÃO;RUA VITOR ORBAN;G;JD VILMA FLOR;GILSON ALMEIDA BARRETO;PARTIDO DA SOCIAL DEMOCRACIA BRASILEIRA;;
472;IND;;473;1997;;PMSP;PAVIMENTAÇÃO;RUA CABO JOSE VIEIRA DA SILVA;VP;;GILSON ALMEIDA BARRETO;PARTIDO DA SOCIAL DEMOCRACIA BRASILEIRA;-23.60511;-46.48857
473;IND;;474;1997;;PMSP;IMPLANTAÇÃO DELOMBADAS E SINALIZAÇÃO PARA REDUÇÃODE VELOCIDADE DOS VEICULOS;RUA VIEIRA DE MELLO, ALTURA DO N. 578 AO 892;JT;V ALBERTINA;NELSON GUIMARAES PROENCA;PARTIDO DA SOCIAL DEMOCRACIA BRASILEIRA;-23.45166;-46.61361
474;IND;;475;1997;;CET;IMPLANTAÇAO DE LOMBADAS E SINALIZAÇÃO PARA REDUÇÃODE VELOCIDADE DOS VEICULOS;AV SENADOR JOSE ERMIRIO DE MORAES, ALT. DO N. 52AO N. 772;JT;V ALBERTINA;NELSON GUIMARAES PROENCA;PARTIDO DA SOCIAL DEMOCRACIA BRASILEIRA;-23.44868;-46.61483
475;IND;;476;1997;;PMSP;INSTALAÇÃO DE REDUTORES DE VELOCIDADE;RUA DR. MIGUEL BOMBARDI;VP;PQ SAO LUCAS;ARCHIBALDO FENICIO ZANCRA;PARTIDO LIBERAL;-23.59425;-46.55197
476;IND;;477;1997;;PMSP;TELEFONE PUBLICO COMUNITARIO;RUA BENEDITO BERNARDES EM FRENTE AO N. 245;VP;V DIVA;ARCHIBALDO FENICIO ZANCRA;PARTIDO LIBERAL;-23.57919;-46.54258
477;IND;;478;1997;;PMSP;LIMPEZA DOS BUEIROS;RUA CHIQUINHA GONZAGA ESQUINA COM RUA PROF. CORTI-NES LAXO;VP;SAPOPEMBA;ARCHIBALDO FENICIO ZANCRA;PARTIDO LIBERAL;;
478;IND;;479;1997;;PMSP;LIMPAR BOCA DE LOBO;RUA GALENO DE ALMEIDA, 337;PI;CERQUEIRA CESAR;JOSE IVO MORGANTI LEITE;PART.DO MOVIMENTO DEMOCRATICO BRASILEIRO;-23.55356;-46.67911
479;IND;;480;1997;;PMSP;LIMPAR BOCA DE LOBO;RUA RAFAEL DE BARROS ESQUINA COM RUA CARLOS STEIN;;PARAISO;JOSE IVO MORGANTI LEITE;PART.DO MOVIMENTO DEMOCRATICO BRASILEIRO;;
480;IND;;481;1997;;PMSP;RECAPEAR O ASFALTO;LADO PAR DA AV. INDIANOPOLIS ENTRE AV. IBIRAPUERAE O CLUBE SIRIO;;MOEMA;JOSE IVO MORGANTI LEITE;PART.DO MOVIMENTO DEMOCRATICO BRASILEIRO;;
481;IND;;482;1997;;PMSP;LIMPAR BOCA DE LOBO;RUA JOAO CACHOEIRA ESQUINA COM RUA JOAQUIM FLORIA-NO;PI;ITAIM BIBI;JOSE IVO MORGANTI LEITE;PART.DO MOVIMENTO DEMOCRATICO BRASILEIRO;-23.58182;-46.67875
482;IND;;483;1997;;PMSP;ENTREGA DA AREA PARA A ASSOCIAÇÃO BENEFICENTE DEPROGRAMA ALIMENTAR DAS FAMILIAS;AV DOS TEXTEIS, 1050;;;JOSE VIVIANI FERRAZ;PARTIDO LIBERAL;-23.59071;-46.4041
483;IND;;484;1997;;PMSP;CONSTRUÇÃO DA CASA DE CULTURA DE PIRITUBA;PIRITUBA;;PIRITUBA;LIDIA CORREA DA SILVA;PART.DO MOVIMENTO DEMOCRATICO BRASILEIRO;-23.46625;-46.7235
484;IND;;485;1997;;PMSP;CONSTRUÇÃO DAS DEPENDÊNCIAS DA SEDE DA ADMPIRITUBA;PIRITUBA;;PIRITUBA;LIDIA CORREA DA SILVA;PART.DO MOVIMENTO DEMOCRATICO BRASILEIRO;-23.46625;-46.7235
485;IND;;486;1997;;PMSP;LIMPEZA DE CORREGO;RUA PROF. PAULO ASSIS RIBEIRO;;JD. DO PASTOR;MARIO POERNER DIAS FERNANDES;DEMOCRATAS;-23.67341;-46.77428
486;IND;;487;1997;;PMSP;TERRAPLANAGEM E CASCALHO;RUA ISABEL DE OLIVEIRA;;JD. ANGELA;MARIO POERNER DIAS FERNANDES;DEMOCRATAS;-23.72587;-46.78335
487;IND;;488;1997;;PMSP;REFORMA DA PARTE HIDRAULICA;EMPG CEL. MÁRIO RANGEL - AV. COMENDADOR SANTANA,821;;CAPÃO REDONDO;MARIO POERNER DIAS FERNANDES;DEMOCRATAS;-23.6743399;-46.77369
488;IND;;489;1997;;PMSP;IMPLANTAÇÃO DE SEMAFORO;AV. COMENDADOR SANTANA, EQUINA COM ARUA GERALDOTEIXEIRA MACHADO;;JD.BOM PASTOR;MARIO POERNER DIAS FERNANDES;DEMOCRATAS;;
489;IND;;490;1997;;PMSP;TAPA-BURACOS;RUA MAURO PINHEIRO;;VILA CALIFORNIA;MARIO POERNER DIAS FERNANDES;DEMOCRATAS;-23.53829;-46.55028
490;IND;;491;1997;;PMSP;CONSERTO DE CALÇADA;EMPG CEL. MÁRIO RANGEL - AV. COMENDADOR SANTANA,821;;CAPÃO REDONDO;MARIO POERNER DIAS FERNANDES;DEMOCRATAS;-23.6743399;-46.77369
491;IND;;492;1997;;PMSP;REGULARIZAÇÃO MECÂNICA E CASCALHAMENTO;RUA TAORMINA;;PARQUE BOULOGNE;MARIO POERNER DIAS FERNANDES;DEMOCRATAS;-23.70188;-46.77757
492;IND;;493;1997;;PMSP;LIMPEZA E RETIRADA DE ENTULHO;RUA MARSALA;;PARQUE BOULOGNE;MARIO POERNER DIAS FERNANDES;DEMOCRATAS;-23.70189;-46.77325
493;IND;;494;1997;;PMSP;TERRAPLENAGEM DE CAMPO DE FUTEBOL;ÁREA ENTRE AS RUAS TIJUCO DA SERRA E ANTIGOCONTINENTE;;PARUQE BOULOGNE;MARIO POERNER DIAS FERNANDES;DEMOCRATAS;;
494;IND;;495;1997;;PMSP;REALINHAMENTO GEOMÉTRICO;RUA PORTO BELO;;PARQUE BOULOGNE;MARIO POERNER DIAS FERNANDES;DEMOCRATAS;-23.70165;-46.77872
495;IND;;496;1997;;PMSP;LIMPEZA DE BUEIROS;RUA SERINGAL DO RIO VERDE, MACARI GRANDE, NOVAPREVIDÊNCIA, TAORMINA;;PARQUE BOULOGNE;MARIO POERNER DIAS FERNANDES;DEMOCRATAS;-23.70006;-46.7763599
496;IND;;497;1997;;PMSP;SERVIÇO TAPA-BURACO;RUA QUEBEC, CRUZAMENTO COM RUA ENG. ARTUR ANTUNESMACIEL;;VILA SANTA CATARINA;MARIO POERNER DIAS FERNANDES;DEMOCRATAS;;
497;IND;;498;1997;;PMSP;PODA DE ÁRVORE E LIMPEZA DE MATO;EMPG LEONERDO VILLAS BOAS - RUA JOSÉ VIRIATO DECASTRO, 63;;JD. BOM REFUGIO;MARIO POERNER DIAS FERNANDES;DEMOCRATAS;-23.63309;-46.7739199
498;IND;;499;1997;;PMSP;COLOCAÇÃO DE LOMBADAS;CRUZAMENTO DAS RUAS AMARO GUERRA E AMÉRICOBRASILIENSE;;CHACARA SANTO ANTONIO;MARIO POERNER DIAS FERNANDES;DEMOCRATAS;-23.63356;-46.69832
499;IND;;500;1997;;PMSP;PAVIMENTAÇÃO ASFALTICA;RUA JELISAVETA KLEIN;;PARUQE RESIDENCIAL JULIA;MARIO POERNER DIAS FERNANDES;DEMOCRATAS;-23.66151;-46.6914299
500;IND;;501;1997;;PMSP;PAVIMENTAÇÃO ASFÁLTICA;RUA ARACARNA;;VILA UNIÃO;MARIO POERNER DIAS FERNANDES;DEMOCRATAS;-23.51979;-46.46486
501;IND;;502;1997;;PMSP;PAVIMENTAÇÃO ASFÁLTICA;RUA IVO FAZZIONI;;CAPÃO REDONDO;MARIO POERNER DIAS FERNANDES;DEMOCRATAS;-23.6723399;-46.77545
502;IND;;503;1997;;PMSP;PAVIMENTAÇÃO ASFÁLTICA;RUA RAINHA DAS MISSÕES;;VILA MISSIONÁRIA;MARIO POERNER DIAS FERNANDES;DEMOCRATAS;-23.6877299;-46.64794
503;IND;;504;1997;;PMSP;PAVIMENTAÇÃO ASFÁLTICA;RUA CARUXA;;JD. SÃO ROQUE;MARIO POERNER DIAS FERNANDES;DEMOCRATAS;-23.60321;-46.52366
504;IND;;505;1997;;PMSP;CONSERTO DE SEMÁFORO;RUA JOSÉ RAMON URTIGA, ESQUINA COM AV. GIOVANNICRONCHI;;VILA ANDRADE;MARIO POERNER DIAS FERNANDES;DEMOCRATAS;-23.63429;-46.73276
505;IND;;506;1997;;PMSP;COLOCAÇÃO DE LOMBADAS;RUA ANTONIO DAS CHAGAS, DEFRONTE EMPG DES. JOAQUIMCANDIDO DE AZEVEDO MARQUES;;CHACARÁ SANTO ANTONIO;MARIO POERNER DIAS FERNANDES;DEMOCRATAS;-23.63081;-46.70134
506;IND;;507;1997;;PMSP;REMOÇÃO DE ARVORE;RUA SÃO JOSE, 848;SA;ALTO DA BOA VISTA;MARIO POERNER DIAS FERNANDES;DEMOCRATAS;-23.6802199;-46.64466
507;IND;;508;1997;;GOVERNADOR DO ESTADO;POSTOS DO DETRAN EM TODAS AS ADMINISTRAÇÕES REGIO-NAIS DA CAPITAL;;;;JOSE IZAR;PARTIDO DA FRENTE LIBERAL;;
508;IND;;509;1997;;PMSP;ASFALTAMENTO DA RUA;RUA SARGENTO WILSON ABEL DE OLIVEIRA;;JD TAQUARAL;JOSE SILVA AMORIM;PARTIDO TRABALHISTA BRASILEIRO;-23.66312;-46.6883
509;IND;;510;1997;;PMSP;ASFALTAMENTO DA RUA;RUA JOAQUIM MIRO;;JD SÃO JOÃO IGUATEMI;JOSE SILVA AMORIM;PARTIDO TRABALHISTA BRASILEIRO;-23.59172;-46.44333
510;IND;;511;1997;;PMSP;CONVENIO COM O SERVIÇO ASSISTENCIAL N.S.RAINHA DAPAZ VISANDO ATENDIMENTO CRIANÇAS CRECHE MADEIRIT;;;;ANTONIO SALIM CURIATI JUNIOR;PARTIDO PROGRESSISTA BRASILEIRO;;
511;IND;;512;1997;;PMSP;PODA DE ARVORES;RUA DR. JOÃO FERRAZ;MO;BAIRRO DO BELEM;ANTONIO DE PAIVA MONTEIRO Fo.;PARTIDO DA REPÚBLICA;-23.53979;-46.59134
512;IND;;513;1997;;PMSP;CONSTRUÇÃO DE UM CENTRO COMUNITARIO DE CULTURA ELAZER;;CS;;ARSELINO ROQUE TATTO;PARTIDO DOS TRABALHADORES;;
513;IND;;514;1997;;SECRETARIA DAS ADM. REGIONAIS;RECONSTRUÇÃO DE MURO DE ARRIMO;RUA FRANCISCO BENTO;;PIRAPORINHA;VICENTE CANDIDO DA SILVA;PARTIDO DOS TRABALHADORES;-23.57632;-46.5848
514;IND;;515;1997;;PMSP;ILUMINAÇÃO AO REDOR DA ESCOLA;AV ESTEVAM DE CARVALHO, 1778;;CIDADE PATRIARCA;JOSE IVO MORGANTI LEITE;PART.DO MOVIMENTO DEMOCRATICO BRASILEIRO;-23.52826;-46.50694
515;IND;;516;1997;;PMSP;LIMPAR A PRAÇA;PRAÇA CRECILDA AMBUBA;SA;V ANDRADE;JOSE IVO MORGANTI LEITE;PART.DO MOVIMENTO DEMOCRATICO BRASILEIRO;-23.46034;-46.69538
516;IND;;517;1997;;PMSP;RETIRADA DE ENTULHO;RUA MANOEL JACINTO DO REGO ESQUINA COM RUA TITO;;LAPA;JOSE IVO MORGANTI LEITE;PART.DO MOVIMENTO DEMOCRATICO BRASILEIRO;-23.52766;-46.70161
517;IND;;518;1997;;PMSP;CORTAR ARVORE;RUA SÃO JOAQUIM. 471;SE;LIBERDADE;JOSE IVO MORGANTI LEITE;PART.DO MOVIMENTO DEMOCRATICO BRASILEIRO;-23.56074;-46.63423
518;IND;;519;1997;;SECRETARIO MUNICIPAL DE TRANSPORTES;IMPLANTAÇÃO DE UMA LINHA DE ONIBUS COM PONTO FINALNO TERMINAL RODOVIARIO TIETE;RUA IRMA MARIA AMELIA PROXIMO AO N. 400;;PIRITUBA;JOSE VIVIANI FERRAZ;PARTIDO LIBERAL;-23.4793739;-46.7446362
519;IND;;520;1997;;PMSP;CONSTRUÇÃO DE UM ESCADÃO;RUA LUIS FACCINI COM A RUA HELCIO DA SILVA;;V TEREZINHA;JOSE VIVIANI FERRAZ;PARTIDO LIBERAL;-23.45616;-46.6980999
520;IND;;521;1997;;SECRETARIO DE VIAS PUBLICAS;CANALIZAÇÃO DO CORREGO TABATINGUERA;RUA PROFESSORA NICIA DE PAULA;FO;;JOSE VIVIANI FERRAZ;PARTIDO LIBERAL;-23.4909399;-46.6708799
521;IND;;522;1997;;PMSP;PAVIMENTAÇÃO;RUA ANTONIO MARIANO LEME;SM;JD DOS MARIANOS;VICENTE BENEDITO VISCOME;PARTIDO PROGRESSISTA BRASILEIRO;-23.68881;-46.70802
522;IND;;523;1997;;PMSP;PROLONGAMENTO DE ASFALTO;ESTRADA DO LIMOEIRO;SM;JD DOS MARIANOS;VICENTE BENEDITO VISCOME;PARTIDO PROGRESSISTA BRASILEIRO;-23.61677;-46.41745
523;IND;;524;1997;;PMSP;CANALIZAÇÃO DO CORREGO DO LIMOEIRO;ESTRADA DOS FIDELIS;SM;JD LIMOEIRO I E II;VICENTE BENEDITO VISCOME;PARTIDO PROGRESSISTA BRASILEIRO;-23.61677;-46.41745
524;IND;;525;1997;;PMSP;PAVIMENTAÇÃO;RUA DOIS;SM;JD ARANTES;VICENTE BENEDITO VISCOME;PARTIDO PROGRESSISTA BRASILEIRO;-23.5208799;-46.56409
525;IND;;526;1997;;PMSP;PAVIMENTAÇÃO;RUA HUM;SE;JD ARANTES;VICENTE BENEDITO VISCOME;PARTIDO PROGRESSISTA BRASILEIRO;-23.5208799;-46.56409
526;IND;;527;1997;;PMSP;REDUTOR DE VELOCIDADE TARTARUGAS;RUA DA MEAÇÃO, ALT. DO N. 170;MO;CHACARA PARAISO;VICENTE BENEDITO VISCOME;PARTIDO PROGRESSISTA BRASILEIRO;-23.55521;-46.56938
527;IND;;528;1997;;PMSP;DOTADA DE ILUMINAÇÃO PUBLICA;PRAÇA ARLINDO LUZ;;JD BRASIL;MARIA HELENA PEREIRA FONTES;PARTIDO LIBERAL;-23.4838099;-46.5768
528;IND;;529;1997;;PMSP;IMPLANTAÇÃO DE UMA LINHA DE ONIBUS LIGANDO O BAIR-RO DO JD SANTA MONICA;;;JD SANTA MONICA;JOSE VIVIANI FERRAZ;PARTIDO LIBERAL;;
529;IND;;530;1997;;PMSP;LIBERAÇÃO DAS ESCRITURAS DO PROJETO JARDIM PAULIS-TANO;AV ELISIO TEIXEIRA LEITE;;;JOSE VIVIANI FERRAZ;PARTIDO LIBERAL;-23.4867199;-46.69818
530;IND;;531;1997;;PMSP;CONTRATAÇÃO DE PROFESSORES SUBSTITUTOS PARA PROVERAS FALTAS DOS PROFESSORES EFETIVOS;;;;JOSE VIVIANI FERRAZ;PARTIDO LIBERAL;;
531;IND;;532;1997;;PMSP;INSTALAÇÃOP DE LOMBADA;AV DOS OURIVES, ALTURA DO N. 349;;JD CELESTE;ARMANDO MELLAO NETO;PART.DO MOVIMENTO DEMOCRATICO BRASILEIRO;-23.6552599;-46.60849
532;IND;;533;1997;;PMSP;INSTALAÇÃO DE ILUMINAÇÃO PUBLICA;RUA JOAQUIM RAFAEL, 97 (VIELA) E N. 250RUA VALBOEIRO, 03 E 194 - LADO BRUA ACACIO FIGUEIREDO, 30 E 75 E R.FCO BARTOLOMEU;;JD WALQUIRIA;ARMANDO MELLAO NETO;PART.DO MOVIMENTO DEMOCRATICO BRASILEIRO;;
533;IND;;534;1997;;PMSP;PAVIMENTAÇÃO;AV PALMEIRA DAS BERMUDAS;;JD DOS IPES;ARMANDO MELLAO NETO;PART.DO MOVIMENTO DEMOCRATICO BRASILEIRO;-23.50583;-46.412
534;IND;;535;1997;;PMSP;PAVIMENTAÇÃO;RUA CELIO JOSE ALVES, RUA CELORICO DE BASTOS, RUAJOSE FERNANDEZ, RUA OUTIZ, RUA VICENZO CAMPI;;JD WALQUIRIA;ARMANDO MELLAO NETO;PART.DO MOVIMENTO DEMOCRATICO BRASILEIRO;;
535;IND;;536;1997;;PMSP;PAVIMENTAÇÃO;SERRA DA CANASTRA, SERRA DOIS IRMÃOS, SERRA DO ES-PINHAÇO, SERRA DAS ESTRELAS;;JD AMALIA;ARMANDO MELLAO NETO;PART.DO MOVIMENTO DEMOCRATICO BRASILEIRO;;
536;IND;;537;1997;;PMSP;ILUMINAÇÃO PUBLICA;RUA CELORICO DE BASTO E RUA OUTIZ;;JD WALQUIRIA;ARMANDO MELLAO NETO;PART.DO MOVIMENTO DEMOCRATICO BRASILEIRO;-23.65369;-46.7794
537;IND;;538;1997;;PMSP;CONSTRUÇÃO DE SARGETA;RUA BRIGADEIRO GALVÃO E AV. ANGELICA;;;HANNA GHARIB;PARTIDO PROGRESSISTA BRASILEIRO;-23.53089;-46.65687
538;IND;;539;1997;;PMSP;CONSTRUÇÃO DE UMA MURETA DE CONCRETO;RUAS FREI CANECA E CAIO PRADO;;;HANNA GHARIB;PARTIDO PROGRESSISTA BRASILEIRO;-23.54965;-46.6483599
539;IND;;540;1997;;PMSP;CONSTRUÇÃO DE UMA MURETA DE CONCRETO;RUAS EDGAR EGIDIO SOUZA E ITAGUA;;;HANNA GHARIB;PARTIDO PROGRESSISTA BRASILEIRO;-23.5223799;-46.52266
540;IND;;541;1997;;PMSP;CANALIZAÇÃO DO CORREGO;ESTRADA M BOI MIRIM, NA ALTURA DO CONDOMINIO PQRESIDENCIAL M BOI MIRIM N. 2298;;JD STA MARGARIDA;HANNA GHARIB;PARTIDO PROGRESSISTA BRASILEIRO;;
541;IND;;542;1997;;PMSP;PAVIMENTAÇÃO;AV PAULO COSTA RIBEIRO BASTOS;;SITIO PALMEIRAS;HANNA GHARIB;PARTIDO PROGRESSISTA BRASILEIRO;-23.73059;-46.687
542;IND;;543;1997;;PMSP;INSTALAÇÃO DE REDUTORES DE VELOCIDADE;RUA MONESELHOR JOÃO LAUREANO;FO;JD MARACANA;HANNA GHARIB;PARTIDO PROGRESSISTA BRASILEIRO;;
543;IND;;544;1997;;PMSP;CANALIZAÇÃO DO CORREGO;RUA ODOVAL VIANA;PJ;JD RINCÃO;HANNA GHARIB;PARTIDO PROGRESSISTA BRASILEIRO;-23.5293;-46.52125
544;IND;;545;1997;;PMSP;PAVIMETAÇÃO;VIELA JEAN DROMAL,ALT. DO 100 DA RUA PIRES DAFONSECA;;JAÇANÃ;HANNA GHARIB;PARTIDO PROGRESSISTA BRASILEIRO;;
545;IND;;546;1997;;A ELETROPAULO;INSTALAÇÃO DE 2 POSTES DE ENERGIA EÇETRICA;RUA PIRES DA FONSECA;;JAÇANÃ;HANNA GHARIB;PARTIDO PROGRESSISTA BRASILEIRO;-23.4699;-46.57841
546;IND;;547;1997;;PMSP;CANALIZAÇÃO DAS ÁGUAS;RUA MIGUEL BARTOLOMEU;;VILA SANTA MARIA;HANNA GHARIB;PARTIDO PROGRESSISTA BRASILEIRO;-23.4840899;-46.6727
547;IND;;548;1997;;PMSP;PAVIMENTAÇÃO;RUA CUBILAI, ALT. DA AV. JOAQUINA RAMALHO607;;VILA GUILHERME;HANNA GHARIB;PARTIDO PROGRESSISTA BRASILEIRO;-23.51135;-46.60615
548;IND;;549;1997;;A TELESP;INSTALAÇÃO DE TELEFONE;RUA MIGUEL PAULO CAPALDO, CANINDÉ;;CANINDÉ;HANNA GHARIB;PARTIDO PROGRESSISTA BRASILEIRO;;
549;IND;;550;1997;;PMSP;PAVIMENTAÇÃO;RUA SERRA DO ARARIPE;;PIQUERI;HANNA GHARIB;PARTIDO PROGRESSISTA BRASILEIRO;-23.49386;-46.71009
550;IND;;551;1997;;A TELESP;INSTALAÇÃO DE TELEFONE COMUNITÁRIO;RUA JOAQUIM NASCIMENTO, NA ALT. DO 10;;JD. MARULU;HANNA GHARIB;PARTIDO PROGRESSISTA BRASILEIRO;-23.4305;-46.72256
551;IND;;552;1997;;PMSP;REDUTORES DE VELOCIDADE;AV. SAPOPEMBA, NA ALT. DO 3.300;;VILA DIVA;HANNA GHARIB;PARTIDO PROGRESSISTA BRASILEIRO;-23.57402;-46.55736
552;IND;;553;1997;;PMSP;REMOÇÃO DE UMA ÁRVORE;RUA GUAPIARA, 214;;PENHA;JOSE IVO MORGANTI LEITE;PART.DO MOVIMENTO DEMOCRATICO BRASILEIRO;-23.51554;-46.5492599
553;IND;;554;1997;;PMSP;LIMPAR A PRAÇA;ROBERTO GOMES PEDROSA;;MORUMBI;JOSE IVO MORGANTI LEITE;PART.DO MOVIMENTO DEMOCRATICO BRASILEIRO;-23.59813;-46.71972
554;IND;;555;1997;;PMSP;PODAR A GRAMA;PRAÇA DEPUTADO AFRANIO DE OLIVEIRA;;JD. LEONOR;JOSE IVO MORGANTI LEITE;PART.DO MOVIMENTO DEMOCRATICO BRASILEIRO;-23.58542;-46.6928399
555;IND;;556;1997;;PMSP;PODAR A GRAMA;RUA SÃO BONIFÁCIO;;JD. LEONOR;JOSE IVO MORGANTI LEITE;PART.DO MOVIMENTO DEMOCRATICO BRASILEIRO;-23.55671;-46.4458
556;IND;;557;1997;;PMSP;CAPEAMENTO;AV. EDU CHAVES, ALT. DO 1050 AO 1400;;PARQUE EDU CHAVES;WADIH JORGE MUTRAN;PARTIDO DEMOCRATICO TRABALHISTA;-23.4793831;-46.5677862
557;IND;;558;1997;;PMSP;INSTALAÇÃO DE BOCA DE LOBO;AV. LIDER,ALT. DO 2949;;ITAQUERA;CARLOS ALBERTO PLETZ NEDER;PARTIDO DOS TRABALHADORES;-23.53811;-46.45599
558;IND;;559;1997;;PMSP;GARANTIR NOMEAÇÃO DOS CONCURSOS APROVADOS;CONCURSO PUBLICO_PARA SELEÇÃO DE DIRETOR;;;CARLOS ALBERTO PLETZ NEDER;PARTIDO DOS TRABALHADORES;;
559;IND;;560;1997;;PMSP;TAPA BURACO;508 DA ESTRADA DO SABÃO;;MORRO GRANDE;CARLOS ALBERTO PLETZ NEDER;PARTIDO DOS TRABALHADORES;-23.4754351;-46.6987376
560;IND;;561;1997;;PMSP;TAPAR BURACO;RUA AQUILES, ALT. DO NUMERO 62;;JAÇANÃ;JOSE IVO MORGANTI LEITE;PART.DO MOVIMENTO DEMOCRATICO BRASILEIRO;-23.4667786;-46.593328
561;IND;;562;1997;;PMSP;PODAR ÁRVORE;RUA LOUVEIRO DA CRUZ, 225;;ACLIMAÇÃO;JOSE IVO MORGANTI LEITE;PART.DO MOVIMENTO DEMOCRATICO BRASILEIRO;-23.57027;-46.63436
562;IND;;563;1997;;PMSP;CAMINHÕES EM EXCESSO NA HORA DO RUSH;AV RAIMUNDO PEREIRA DE MAGALHÃES, 1720;;PIRITUBA;JOSE IVO MORGANTI LEITE;PART.DO MOVIMENTO DEMOCRATICO BRASILEIRO;-23.5060394;-46.7174735
563;IND;;564;1997;;PMSP;PODAR A GRAMA;PRAÇA DEPUTADO DARIO DE BARROS;;JD. LEONOR;JOSE IVO MORGANTI LEITE;PART.DO MOVIMENTO DEMOCRATICO BRASILEIRO;-23.5870399;-46.6933
564;IND;;565;1997;;PMSP_E SECRETARIO DA EDUCAÇÃO;CONCESSÃO DE BOLSAS DE ESTUDO PARA CRIANÇAS COMDEFICIÊNCIA AUDITIVA E VISUAL;SÃO PAULO;;;ARCHIBALDO FENICIO ZANCRA;PARTIDO LIBERAL;-23.65819;-46.67501
565;IND;;566;1997;;A TELESP;TELEFONE COMUNITÁRIO;AV. ALMEIDA, 02;;SANTO AMARO;ARMANDO MELLAO NETO;PART.DO MOVIMENTO DEMOCRATICO BRASILEIRO;-23.65802;-46.70602
566;IND;;567;1997;;PMSP;LIMPEZA E RETIRADA DE ENTULHO;RUA FERNANDES TOURINHO, 182;;JD. VERA CRUZ;VICENTE BENEDITO VISCOME;PARTIDO PROGRESSISTA BRASILEIRO;-23.6161;-46.47042
567;IND;;568;1997;;PMSP;CORTE DE GRAMA;PRAÇA DO COSTINHA, ENTRE AS RUAS TEODOSIO DA ROCHAGOMES MARZAGÃO E DIOGO DO REGO MENDONÇA;;PARQUE SÃO RAFAEL;VICENTE BENEDITO VISCOME;PARTIDO PROGRESSISTA BRASILEIRO;;
568;IND;;569;1997;;PMSP;LOMBADAS;RUA JOÃO VICENTE DA FONSECA;;PARQUE SÃO RAFAEL;VICENTE BENEDITO VISCOME;PARTIDO PROGRESSISTA BRASILEIRO;-23.6325;-46.47443
569;IND;;570;1997;;PMSP;MUNDANÇA DE PONTO DE ÔNIBUS;AV. VEREADOR ABEL FERREIRA, DO 400 PARA 280;;V. REGENTE FEIJÓ;VICENTE BENEDITO VISCOME;PARTIDO PROGRESSISTA BRASILEIRO;-23.5555798;-46.5743005
570;IND;;571;1997;;PMSP;LIMPEZA DE BUEIROS;RUA DR. HELÁDIO;;V. ESPERANÇA;VICENTE BENEDITO VISCOME;PARTIDO PROGRESSISTA BRASILEIRO;-23.53023;-46.52386
571;IND;;572;1997;;PMSP;LIMPEZA DO CORREGO;FINAL DA RUA MAJOR ANGELO ZANCHI;;PENHA;VICENTE BENEDITO VISCOME;PARTIDO PROGRESSISTA BRASILEIRO;-23.52922;-46.5471999
572;IND;;573;1997;;PMSP;MUDANÇA DO PONTO DE ÔNIBUS;RUA TIÉ,ALT. DO 86;;MOOCA;VICENTE BENEDITO VISCOME;PARTIDO PROGRESSISTA BRASILEIRO;-23.56178;-46.58203
573;IND;;574;1997;;PMSP;PAVIMENTAÇÃO;RUA VIECENTE JOSÉ CABRAL;;ENG. GOULART;VICENTE BENEDITO VISCOME;PARTIDO PROGRESSISTA BRASILEIRO;-23.50297;-46.51639
574;IND;;575;1997;;PMSP;CANALIZAÇÃO DO CORREGO;CORREGO DAS ANTAS;;PERUS;JOSE VIVIANI FERRAZ;PARTIDO LIBERAL;-23.72565;-46.78537
575;IND;;576;1997;;PMSP;IMPLANTAÇÃO DE UMA GALERIA PARA AGUAS PLUVIAIS;RUA DO OUTONO, ENTRE AS RUAS LÁZARO AMÂNCIO DEBARROS E RUA MUNIZ BARRETO NA BRASILÂNDIA;;BRASILÂNDIA;JOSE VIVIANI FERRAZ;PARTIDO LIBERAL;;
576;IND;;577;1997;;PMSP;INSTALAÇÃO DE SEMÁFORO;CRUZAMENTO DA RUA SOLDADO JOSÉ VIVANCO SOLANO COMA RUA SARGENTO MIGUEL DE SOUZA FILHO;;PARUQE NOVO MUNDO;WADIH JORGE MUTRAN;PARTIDO DEMOCRATICO TRABALHISTA;-23.50308;-46.57144
577;IND;;578;1997;;SABESP;INSTALADOS HIDROMETROS INDIVIDUAIS PARA AS 24 CA-SA DA VIELA;RUA ALVARO DOS SANTOS,284;;JD. BRASIL;WADIH JORGE MUTRAN;PARTIDO DEMOCRATICO TRABALHISTA;-23.4819;-46.56999
578;IND;;579;1997;;PMSP;TRANSFERENCIA DE PONTO DE ONIBUS;DO N. 169 PARA O N. 187 DA RUA CONSELHEIRO SARAIVA;ST;SANTANA;WADIH JORGE MUTRAN;PARTIDO DEMOCRATICO TRABALHISTA;-23.49902;-46.6252799
579;IND;;580;1997;;PMSP;INSTALAÇÃO DE TELEFONE PUBLICO;RUA DIAS DA SILVA, 1533;MG;VILA MARIA;WADIH JORGE MUTRAN;PARTIDO DEMOCRATICO TRABALHISTA;-23.5134511;-46.5844122
580;IND;;581;1997;;PMSP;LIMPEZA DA PRAÇA;AV ZUMKELER COM A RUA DIREITOS HUMANOS;;;MARIA HELENA PEREIRA FONTES;PARTIDO LIBERAL;-23.48502;-46.65122
581;IND;;582;1997;;PMSP;REPAROS NA PAVIMNETAÇÃO;RUA DIRCEU DA COSTA PINTO;;;MARIA HELENA PEREIRA FONTES;PARTIDO LIBERAL;-23.59652;-46.57924
582;IND;;583;1997;;PMSP;LIMPEZA DO CORREGO;AV PENHA BRASIL, 2006;;;MARIA HELENA PEREIRA FONTES;PARTIDO LIBERAL;-23.45862;-46.6751
583;IND;;584;1997;;PMSP;SINALIZAÇÃO DA LOMBADA;RUA MACUXIS, 57;;;MARIA HELENA PEREIRA FONTES;PARTIDO LIBERAL;-23.471924;-46.6601582
